hub_id,facility_id,hub_source_row_id,hub_name,hub_name_clean,hub_level,ownership,subregion,longitude,latitude,coordinate_valid,coordinate_source,cl_binary,hu_binary,nbs_binary,tr_binary,hub_service_score,hub_service_deficit,hub_readiness,eligible_primary_hub,eligible_strong_hub,eligible_full_hub,eligible_treatment_any_hub,eligible_transfusion_ready_hub,catchment_population,scd_admissions,scd_deaths,hbs_mean,pfpr_mean,master_name,master_name_clean,master_type,master_ownership,master_authority,master_status,master_region,master_district,master_county,master_subcounty,master_name_match_flag,no,facility_name,facility_type,cl,hu,nbs,tr,co_risk_product,hbs_minmax,pfpr_minmax,co_risk_additive_standardised,master_longitude,master_latitude,master_coordinate_valid
HF0002,HF0002,1,Buikwe St. Charles Lwanga HOSPITAL,BUIKWE SAINT CHARLES LWANGA HOSPITAL,General Hospital,Private Not For Profit,NORTH BUGANDA,33.03181,0.33944,TRUE,facilities_master_by_facility_id,0,0,1,1,2,0.5,partial_hub_score_2,TRUE,FALSE,FALSE,TRUE,TRUE,117227,720,5,0.088849,0.178194,Buikwe St. Charles Lwanga HOSPITAL,BUIKWE SAINT CHARLES LWANGA HOSPITAL,General Hospital,Private Not For Profit,UCMB,Functional,NA,BUIKWE,BUIKWE,BUIKWE TOWN COUNCIL,exact_clean_name_match,1,Buikwe St. Charles Lwanga HOSPITAL,General Hospital,0,0,1,1,0.01583236,0.84626391,0.29116933,0.56871662,33.03181,0.33944,TRUE
HF0007,HF0007,2,Kawolo HOSPITAL,KAWOLO HOSPITAL,General Hospital,Government,NORTH BUGANDA,32.94508,0.36783,TRUE,facilities_master_by_facility_id,1,0,1,1,3,0.25,strong_hub_score_3,TRUE,TRUE,FALSE,TRUE,TRUE,41558,711,12,0.087423,0.162392,Kawolo HOSPITAL,KAWOLO HOSPITAL,General Hospital,Government,MOH,Functional,NA,BUIKWE,LUGAZI MUNICIPALITY,CENTRAL DIVISION,exact_clean_name_match,2,Kawolo HOSPITAL,General Hospital,1,0,1,1,0.0141968,0.82820711,0.25616299,0.54218505,32.94508,0.36783,TRUE
HF0008,HF0008,3,Lugazi Scoul HOSPITAL,LUGAZI SCOUL HOSPITAL,General Hospital,Private For Profit,NORTH BUGANDA,32.93794,0.37751,TRUE,facilities_master_by_facility_id,0,0,0,1,1,0.75,weak_hub_score_1,FALSE,FALSE,FALSE,TRUE,TRUE,77886,26,1,0.084536,0.155447,Lugazi Scoul HOSPITAL,LUGAZI SCOUL HOSPITAL,General Hospital,Private For Profit,NA,Functional,NA,BUIKWE,LUGAZI MUNICIPALITY,CENTRAL DIVISION,exact_clean_name_match,3,Lugazi Scoul HOSPITAL,General Hospital,0,0,0,1,0.01314087,0.79165031,0.24077766,0.51621399,32.93794,0.37751,TRUE
HF0019,HF0019,4,Nkokonjeru HOSPITAL,NKOKONJERU HOSPITAL,General Hospital,Private Not For Profit,NORTH BUGANDA,32.92302,0.23599,TRUE,facilities_master_by_facility_id,0,0,0,1,1,0.75,weak_hub_score_1,FALSE,FALSE,FALSE,TRUE,TRUE,120831,15,0,0.084365,0.165175,Nkokonjeru HOSPITAL,NKOKONJERU HOSPITAL,General Hospital,Private Not For Profit,UCMB,Functional,NA,BUIKWE,BUIKWE,NKOKONJERU TOWN COUNCIL,exact_clean_name_match,4,Nkokonjeru  HOSPITAL,General Hospital,0,0,0,1,0.01393499,0.78948501,0.2623282,0.52590661,32.92302,0.23599,TRUE
HF0022,HF0022,5,St. Francis Nyenga HOSPITAL,SAINT FRANCIS NYENGA HOSPITAL,General Hospital,Private Not For Profit,NORTH BUGANDA,33.14065,0.39505,TRUE,facilities_master_by_facility_id,0,0,0,1,1,0.75,weak_hub_score_1,FALSE,FALSE,FALSE,TRUE,TRUE,126012,199,4,0.09128,0.194136,St. Francis Nyenga HOSPITAL,SAINT FRANCIS NYENGA HOSPITAL,General Hospital,Private Not For Profit,UCMB,Functional,NA,BUIKWE,NJERU MUNICIPALITY,NYENGA DIVISION,exact_clean_name_match,5,St. Francis Nyenga HOSPITAL,General Hospital,0,0,0,1,0.01772073,0.87704659,0.32648581,0.6017662,33.14065,0.39505,TRUE
HF0039,HF0039,6,Butenga HC IV,BUTENGA HC IV,HC IV,Government,SOUTH BUGANDA,31.67238,-0.19553,TRUE,facilities_master_by_facility_id,1,0,0,0,1,0.75,weak_hub_score_1,FALSE,FALSE,FALSE,TRUE,FALSE,126212,0,0,0.057998,0.139919,Butenga HC IV,BUTENGA HC IV,HC IV,Government,MOH,Functional,NA,BUKOMANSIMBI,BUKOMANSIMBI,BUTENGA,exact_clean_name_match,6,Butenga HC IV,HC IV,1,0,0,0,0.00811502,0.45561141,0.20637832,0.33099486,31.67238,-0.19553,TRUE
HF0052,HF0052,7,Gombe HOSPITAL,GOMBE HOSPITAL,General Hospital,Government,SOUTH BUGANDA,32.114144,0.184416,TRUE,facilities_master_by_facility_id,0,0,1,1,2,0.5,partial_hub_score_2,TRUE,FALSE,FALSE,TRUE,TRUE,143579,100,4,0.064401,0.119993,Gombe HOSPITAL,GOMBE HOSPITAL,General Hospital,Government,MOH,Functional,NA,BUTAMBALA,BUTAMBALA,GOMBE TOWN COUNCIL,exact_clean_name_match,7,Gombe HOSPITAL,General Hospital,0,0,1,1,0.00772767,0.53668975,0.16223605,0.3494629,32.114144,0.184416,TRUE
HF0083,HF0083,8,Maddu HC IV,MADDU HC IV,HC IV,Government,SOUTH BUGANDA,31.66908,0.21294,TRUE,facilities_master_by_facility_id,0,0,0,0,0,1,not_ready_score_0,FALSE,FALSE,FALSE,FALSE,FALSE,44006,0,0,0.058721,0.166956,Maddu HC IV,MADDU HC IV,HC IV,Government,MOH,Functional,NA,GOMBA,GOMBA,MADDU,exact_clean_name_match,8,Maddu HC IV,HC IV,0,0,0,0,0.00980382,0.46476644,0.26627367,0.36552006,31.66908,0.21294,TRUE
HF0092,HF0092,9,Bukulula HC IV,BUKULULA HC IV,HC IV,Government,SOUTH BUGANDA,31.844494,-0.178123,TRUE,facilities_master_by_facility_id,1,0,0,0,1,0.75,weak_hub_score_1,FALSE,FALSE,FALSE,TRUE,FALSE,62110,0,0,0.060811,0.124908,Bukulula HC IV,BUKULULA HC IV,HC IV,Government,Local Government,Functional,NA,KALUNGU,KALUNGU,BUKULULA,exact_clean_name_match,9,Bukulula HC IV,HC IV,1,0,0,0,0.00759578,0.49123118,0.1731243,0.33217774,31.844494,-0.178123,TRUE
HF0093,HF0093,10,Villa Maria HOSPITAL,VILLA MARIA HOSPITAL,General Hospital,Private Not For Profit,SOUTH BUGANDA,31.743304,-0.228127,TRUE,facilities_master_by_facility_id,1,1,1,1,4,0,full_hub_score_4,TRUE,TRUE,TRUE,TRUE,TRUE,54373,369,7,0.060275,0.135269,Villa Maria HOSPITAL,VILLA MARIA HOSPITAL,General Hospital,Private Not For Profit,UCMB,Functional,NA,KALUNGU,KALUNGU,KALUNGU,exact_clean_name_match,10,Villa Maria HOSPITAL,General Hospital,1,1,1,1,0.00815334,0.48444405,0.19607713,0.34026059,31.743304,-0.228127,TRUE
HF0103,HF0103,11,St. Joseph of the Good Shephard Kyamulibwa Ngo HC IV,SAINT JOSEPH OF THE GOOD SHEPHARD KYAMULIBWA NGO HC IV,HC IV,Private Not For Profit,SOUTH BUGANDA,31.757589,-0.082854,TRUE,facilities_master_by_facility_id,0,0,0,0,0,1,not_ready_score_0,FALSE,FALSE,FALSE,FALSE,FALSE,82203,0,0,0.059768,0.132939,St. Joseph of the Good Shephard Kyamulibwa Ngo HC IV,SAINT JOSEPH OF THE GOOD SHEPHARD KYAMULIBWA NGO HC IV,HC IV,Private Not For Profit,UCMB,Functional,NA,KALUNGU,KALUNGU,KYAMULIBWA TOWN COUNCIL,exact_clean_name_match,11,St. Joseph of the Good Shephard Kyamulibwa Ngo HC IV,HC IV,0,0,0,0,0.0079455,0.47802413,0.19091545,0.33446979,31.757589,-0.082854,TRUE
HF0118,HF0118,12,Kololo HOSPITAL,KOLOLO HOSPITAL,General Hospital,Private For Profit,KAMPALA,32.588224,0.336823,TRUE,facilities_master_by_facility_id,1,0,1,1,3,0.25,strong_hub_score_3,TRUE,TRUE,FALSE,TRUE,TRUE,243967,711,12,0.077403,0.095929,Kololo HOSPITAL,KOLOLO HOSPITAL,General Hospital,Private For Profit,Local Government,Functional,NA,KAMPALA,NA,NA,exact_clean_name_match,12,Kololo HOSPITAL,General Hospital,1,0,1,1,0.00742519,0.7013283,0.10892682,0.40512756,32.588224,0.336823,TRUE
HF0202,HF0202,13,International Hospital Kampala (IHK),INTERNATIONAL HOSPITAL KAMPALA IHK,General Hospital,Private For Profit,KAMPALA,32.61153,0.30528,TRUE,facilities_master_by_facility_id,0,0,0,0,0,1,not_ready_score_0,FALSE,FALSE,FALSE,FALSE,FALSE,183488,9,0,0.078401,0.09044,International Hospital Kampala (IHK),INTERNATIONAL HOSPITAL KAMPALA IHK,General Hospital,Private For Profit,Local Government,Functional,NA,KAMPALA,NA,NA,exact_clean_name_match,13,International Hospital Kampala (IHK),General Hospital,0,0,0,0,0.00709059,0.71396553,0.09676698,0.40536626,32.61153,0.30528,TRUE
HF0203,HF0203,14,Kibuli HOSPITAL,KIBULI HOSPITAL,General Hospital,Private Not For Profit,KAMPALA,32.595073,0.313056,TRUE,facilities_master_by_facility_id,1,0,1,1,3,0.25,strong_hub_score_3,TRUE,TRUE,FALSE,TRUE,TRUE,71046,17,1,0.076874,0.085271,Kibuli HOSPITAL,KIBULI HOSPITAL,General Hospital,Private Not For Profit,Local Government,Functional,NA,KAMPALA,NA,NA,exact_clean_name_match,14,Kibuli HOSPITAL,General Hospital,1,0,1,1,0.00655512,0.69462981,0.08531604,0.38997293,32.595073,0.313056,TRUE
HF0204,HF0204,15,St. Francis Nsambya HOSPITAL,SAINT FRANCIS NSAMBYA HOSPITAL,General Hospital,Private Not For Profit,KAMPALA,32.585,0.3017,TRUE,facilities_master_by_facility_id,1,0,1,1,3,0.25,strong_hub_score_3,TRUE,TRUE,FALSE,TRUE,TRUE,181515,601,12,0.077156,0.087914,St. Francis Nsambya HOSPITAL,SAINT FRANCIS NSAMBYA HOSPITAL,General Hospital,Private Not For Profit,UCMB,Functional,NA,KAMPALA,NA,NA,exact_clean_name_match,15,St. Francis Nsambya HOSPITAL,General Hospital,1,0,1,1,0.00678309,0.69820065,0.0911711,0.39468587,32.585,0.3017,TRUE
HF0216,HF0216,16,Kiruddu,KIRUDDU,NR Hospital,Government,KAMPALA,32.61274,0.24828,TRUE,facilities_master_by_facility_id,0,0,1,0,1,0.75,weak_hub_score_1,FALSE,FALSE,FALSE,FALSE,FALSE,238924,2191,0,0.079776,0.111445,Kiruddu,KIRUDDU,NR Hospital,Government,Local Government,Functional,NA,KAMPALA,NA,NA,exact_clean_name_match,16,Kiruddu,NR Hospital,0,0,1,0,0.00889064,0.73137655,0.14329957,0.43733806,32.61274,0.24828,TRUE
HF0252,HF0252,17,Kadic HOSPITAL,KADIC HOSPITAL,General Hospital,Private For Profit,KAMPALA,32.603411,0.352746,TRUE,facilities_master_by_facility_id,1,1,1,1,4,0,full_hub_score_4,TRUE,TRUE,TRUE,TRUE,TRUE,239469,273,10,0.078492,0.092641,Kadic HOSPITAL,KADIC HOSPITAL,General Hospital,Private For Profit,Local Government,Functional,NA,KAMPALA,NA,NA,exact_clean_name_match,17,Kadic HOSPITAL,General Hospital,1,1,1,1,0.00727158,0.71511783,0.10164287,0.40838035,32.603411,0.352746,TRUE
HF0253,HF0253,18,Murchison Bay HOSPITAL,MURCHISON BAY HOSPITAL,General Hospital,Government,KAMPALA,32.633478,0.283601,TRUE,facilities_master_by_facility_id,0,0,0,1,1,0.75,weak_hub_score_1,FALSE,FALSE,FALSE,TRUE,TRUE,40079,0,0,0.080231,0.105567,Murchison Bay HOSPITAL,MURCHISON BAY HOSPITAL,General Hospital,Government,Prisons,Functional,NA,KAMPALA,NA,NA,exact_clean_name_match,18,Murchison Bay  HOSPITAL,General Hospital,0,0,0,1,0.00846975,0.73713801,0.13027798,0.433708,32.633478,0.283601,TRUE
HF0262,HF0262,19,Benedict Medical centre HC IV,BENEDICT MEDICAL CENTRE HC IV,HC IV,Private Not For Profit,KAMPALA,32.64301,0.30274,TRUE,facilities_master_by_facility_id,0,0,0,1,1,0.75,weak_hub_score_1,FALSE,FALSE,FALSE,TRUE,TRUE,99318,2,0,0.080643,0.106083,Benedict Medical centre HC IV,BENEDICT MEDICAL CENTRE HC IV,HC IV,Private Not For Profit,UCMB,Functional,NA,KAMPALA,NA,NA,exact_clean_name_match,19,Benedict Medical centre  HC IV,HC IV,0,0,0,1,0.00855485,0.74235498,0.13142108,0.43688803,32.64301,0.30274,TRUE
HF0263,HF0263,20,Butabika NATIONAL REFERAL HOSPITAL,BUTABIKA NATIONAL REFERAL HOSPITAL,NR Hospital,Government,KAMPALA,32.6561,0.315,TRUE,facilities_master_by_facility_id,0,0,1,1,2,0.5,partial_hub_score_2,TRUE,FALSE,FALSE,TRUE,TRUE,66129,373,13,0.082055,0.104285,Butabika NATIONAL REFERAL HOSPITAL,BUTABIKA NATIONAL REFERAL HOSPITAL,NR Hospital,Government,MOH,Functional,NA,KAMPALA,NA,NA,exact_clean_name_match,20,Butabika NATIONAL REFERAL HOSPITAL,NR Hospital,0,0,1,1,0.00855711,0.76023451,0.12743795,0.44383623,32.6561,0.315,TRUE
HF0264,HF0264,21,Naguru Hospital - China Uganda Friendship,NAGURU HOSPITAL CHINA UGANDA FRIENDSHIP,RR Hospital,Government,KAMPALA,32.60657,0.32898,TRUE,facilities_master_by_facility_id,0,0,0,0,0,1,not_ready_score_0,FALSE,FALSE,FALSE,FALSE,FALSE,68614,0,0,0.077638,0.086521,Naguru Hospital - China Uganda Friendship,NAGURU HOSPITAL CHINA UGANDA FRIENDSHIP,RR Hospital,Government,MOH,Functional,NA,KAMPALA,NA,NA,exact_clean_name_match,21,Naguru  Hospital  - China Uganda Friendship,RR Hospital,0,0,0,0,0.00671732,0.704304,0.08808517,0.39619459,32.60657,0.32898,TRUE
HF0281,HF0281,22,Lubaga HOSPITAL,LUBAGA HOSPITAL,General Hospital,Private Not For Profit,KAMPALA,32.551622,0.30797,TRUE,facilities_master_by_facility_id,1,0,1,1,3,0.25,strong_hub_score_3,TRUE,TRUE,FALSE,TRUE,TRUE,594380,383,4,0.074318,0.099582,Lubaga HOSPITAL,LUBAGA HOSPITAL,General Hospital,Private Not For Profit,UCMB,Functional,NA,KAMPALA,NA,NA,exact_clean_name_match,22,Lubaga HOSPITAL,General Hospital,1,0,1,1,0.00740074,0.66226432,0.11701934,0.38964183,32.551622,0.30797,TRUE
HF0282,HF0282,23,Mengo HOSPITAL,MENGO HOSPITAL,General Hospital,Private Not For Profit,KAMPALA,32.55999,0.31306,TRUE,facilities_master_by_facility_id,1,1,0,1,3,0.25,strong_hub_score_3,TRUE,TRUE,FALSE,TRUE,TRUE,291689,724,3,0.074779,0.096856,Mengo HOSPITAL,MENGO HOSPITAL,General Hospital,Private Not For Profit,NA,Functional,NA,KAMPALA,NA,NA,exact_clean_name_match,23,Mengo HOSPITAL,General Hospital,1,1,0,1,0.00724279,0.66810176,0.11098041,0.38954109,32.55999,0.31306,TRUE
HF0283,HF0283,24,Namungoona Orthodox Hospital HC III,NAMUNGOONA ORTHODOX HOSPITAL HC III,General Hospital,Private Not For Profit,KAMPALA,32.54522,0.33817,TRUE,facilities_master_by_facility_id,0,0,0,0,0,1,not_ready_score_0,FALSE,FALSE,FALSE,FALSE,FALSE,503661,0,0,0.075615,0.099272,Namungoona Orthodox Hospital HC III,NAMUNGOONA ORTHODOX HOSPITAL HC III,General Hospital,Private Not For Profit,NA,Functional,NA,KAMPALA,NA,NA,exact_clean_name_match,24,Namungoona Orthodox Hospital HC III,General Hospital,0,0,0,0,0.00750645,0.67868765,0.1163326,0.39751012,32.54522,0.33817,TRUE
HF0290,HF0290,25,Bbaale HC IV,BBAALE HC IV,HC IV,Government,NORTH BUGANDA,32.88569,1.1056,TRUE,facilities_master_by_facility_id,0,0,0,0,0,1,not_ready_score_0,FALSE,FALSE,FALSE,FALSE,FALSE,29346,0,0,0.095513,0.311314,Bbaale HC IV,BBAALE HC IV,HC IV,Government,MOH,Functional,NA,KAYUNGA,BBAALE,BBAALE,exact_clean_name_match,25,Bbaale HC IV,HC IV,0,0,0,0,0.02973453,0.93064718,0.58607146,0.75835932,32.88569,1.1056,TRUE
HF0298,HF0298,26,Kangulumira HC IV,KANGULUMIRA HC IV,HC IV,Government,NORTH BUGANDA,33.03127,0.58534,TRUE,facilities_master_by_facility_id,0,0,1,1,2,0.5,partial_hub_score_2,TRUE,FALSE,FALSE,TRUE,TRUE,109538,71,0,0.090342,0.220796,Kangulumira HC IV,KANGULUMIRA HC IV,HC IV,Government,MOH,Functional,NA,KAYUNGA,NTENJERU,KANGULUMIRA,exact_clean_name_match,26,Kangulumira HC IV,HC IV,0,0,1,1,0.01994715,0.86516911,0.38554599,0.62535755,33.03127,0.58534,TRUE
HF0304,HF0304,27,Kayunga Hospital,KAYUNGA HOSPITAL,General Hospital,Government,NORTH BUGANDA,32.90342,0.70353,TRUE,facilities_master_by_facility_id,1,1,1,1,4,0,full_hub_score_4,TRUE,TRUE,TRUE,TRUE,TRUE,213826,1041,17,0.091807,0.288328,Kayunga Hospital,KAYUNGA HOSPITAL,General Hospital,Government,MOH,Functional,NA,KAYUNGA,NTENJERU,KAYUNGA TOWN COUNCIL,exact_clean_name_match,27,Kayunga Hospital,General Hospital,1,1,1,1,0.02647053,0.88371975,0.53515033,0.70943504,32.90342,0.70353,TRUE
HF0316,HF0316,28,Bukomero HC IV,BUKOMERO HC IV,HC IV,Government,NORTH BUGANDA,32.03981,0.6907,TRUE,facilities_master_by_facility_id,1,1,0,0,2,0.5,partial_hub_score_2,TRUE,FALSE,FALSE,TRUE,FALSE,86711,0,0,0.068178,0.152059,Bukomero HC IV,BUKOMERO HC IV,HC IV,Government,MOH,Functional,NA,KIBOGA,KIBOGA,BUKOMERO TOWN COUNCIL,exact_clean_name_match,28,Bukomero HC IV,HC IV,1,1,0,0,0.01036708,0.58451623,0.23327219,0.40889421,32.03981,0.6907,TRUE
HF0327,HF0327,29,Kiboga HOSPITAL,KIBOGA HOSPITAL,General Hospital,Government,NORTH BUGANDA,31.776151,0.913794,TRUE,facilities_master_by_facility_id,1,0,1,1,3,0.25,strong_hub_score_3,TRUE,TRUE,FALSE,TRUE,TRUE,123578,65,4,0.065516,0.16593,Kiboga HOSPITAL,KIBOGA HOSPITAL,General Hospital,Government,MOH,Functional,NA,KIBOGA,KIBOGA,KIBOGA TOWN COUNCIL,exact_clean_name_match,29,Kiboga HOSPITAL,General Hospital,1,0,1,1,0.01087107,0.5508085,0.26400076,0.40740463,31.776151,0.913794,TRUE
HF0354,HF0354,30,Ntwetwe HC IV,NTWETWE HC IV,HC IV,Government,NORTH BUGANDA,31.58917,0.94932,TRUE,facilities_master_by_facility_id,0,0,0,0,0,1,not_ready_score_0,FALSE,FALSE,FALSE,FALSE,FALSE,120014,0,0,0.060245,0.181578,Ntwetwe HC IV,NTWETWE HC IV,HC IV,Government,MOH,Functional,NA,KYANKWANZI,KIBOGA,NTWETWE TOWN COUNCIL,exact_clean_name_match,30,Ntwetwe HC IV,HC IV,0,0,0,0,0.01093917,0.48406417,0.29866594,0.39136506,31.58917,0.94932,TRUE
HF0362,HF0362,31,Bombo General Military HOSPITAL,BOMBO GENERAL MILITARY HOSPITAL,General Hospital,Government,NORTH BUGANDA,32.53631,0.58475,TRUE,facilities_master_by_facility_id,0,0,0,1,1,0.75,weak_hub_score_1,FALSE,FALSE,FALSE,TRUE,TRUE,170628,148,5,0.078746,0.150044,Bombo General Military HOSPITAL,BOMBO GENERAL MILITARY HOSPITAL,General Hospital,Government,Army,Functional,NA,LUWERO,KATIKAMU,BOMBO TOWN COUNCIL,exact_clean_name_match,31,Bombo General Military HOSPITAL,General Hospital,0,0,0,1,0.01181536,0.71833411,0.22880834,0.47357123,32.53631,0.58475,TRUE
HF0376,HF0376,32,Kalagala HC IV,KALAGALA HC IV,HC IV,Government,NORTH BUGANDA,32.67677,0.5943,TRUE,facilities_master_by_facility_id,1,1,0,0,2,0.5,partial_hub_score_2,TRUE,FALSE,FALSE,TRUE,FALSE,68178,0,0,0.085063,0.175196,Kalagala HC IV,KALAGALA HC IV,HC IV,Government,MOH,Functional,NA,LUWERO,BAMUNANIKA,KALAGALA,exact_clean_name_match,32,Kalagala HC IV,HC IV,1,1,0,0,0.0149027,0.79832348,0.28452783,0.54142565,32.67677,0.5943,TRUE
HF0401,HF0401,33,Luwero HC IV,LUWERO HC IV,HC IV,Government,NORTH BUGANDA,32.606311,0.683861,TRUE,facilities_master_by_facility_id,0,0,0,0,0,1,not_ready_score_0,FALSE,FALSE,FALSE,FALSE,FALSE,138002,0,0,0.084107,0.191479,Luwero HC IV,LUWERO HC IV,HC IV,Government,MOH,Functional,NA,LUWERO,BAMUNANIKA,BAMUNANIKA,exact_clean_name_match,33,Luwero HC IV,HC IV,0,0,0,0,0.01610472,0.78621807,0.32059973,0.5534089,32.606311,0.683861,TRUE
HF0402,HF0402,34,Bishop Asili Ceaser HC IV,BISHOP ASILI CEASER HC IV,HC IV,Private Not For Profit,NORTH BUGANDA,32.66096,0.663464,TRUE,facilities_master_by_facility_id,0,0,0,0,0,1,not_ready_score_0,FALSE,FALSE,FALSE,FALSE,FALSE,69531,0,0,0.088171,0.216241,Bishop Asili Ceaser HC IV,BISHOP ASILI CEASER HC IV,HC IV,Private Not For Profit,UCMB,Functional,NA,LUWERO,BAMUNANIKA,ZIROBWE,exact_clean_name_match,34,Bishop Asili Ceaser HC IV,HC IV,0,0,0,0,0.01906619,0.8376787,0.37545525,0.60656698,32.66096,0.663464,TRUE
HF0411,HF0411,35,Nyimbwa HC IV,NYIMBWA HC IV,HC IV,Government,NORTH BUGANDA,32.487199,0.877101,TRUE,facilities_master_by_facility_id,0,0,0,0,0,1,not_ready_score_0,FALSE,FALSE,FALSE,FALSE,FALSE,166414,0,0,0.084188,0.21601,Nyimbwa HC IV,NYIMBWA HC IV,HC IV,Government,MOH,Functional,NA,LUWERO,KATIKAMU,LUWERO,exact_clean_name_match,35,Nyimbwa HC IV,HC IV,0,0,0,0,0.01818545,0.78724374,0.37494351,0.58109362,32.487199,0.877101,TRUE
HF0429,HF0429,36,Kiwangala HC IV,KIWANGALA HC IV,HC IV,Government,SOUTH BUGANDA,31.51589,-0.47508,TRUE,facilities_master_by_facility_id,1,1,0,0,2,0.5,partial_hub_score_2,TRUE,FALSE,FALSE,TRUE,FALSE,118581,0,0,0.054919,0.13857,Kiwangala HC IV,KIWANGALA HC IV,HC IV,Government,MOH,Functional,NA,LWENGO,BUKOTO,KISEKKA,exact_clean_name_match,36,Kiwangala HC IV,HC IV,1,1,0,0,0.00761013,0.4166234,0.20338987,0.31000663,31.51589,-0.47508,TRUE
HF0438,HF0438,37,Kyazanga HC IV,KYAZANGA HC IV,HC IV,Government,SOUTH BUGANDA,31.31989,-0.38311,TRUE,facilities_master_by_facility_id,0,0,0,0,0,1,not_ready_score_0,FALSE,FALSE,FALSE,FALSE,FALSE,175942,0,0,0.048191,0.13652,Kyazanga HC IV,KYAZANGA HC IV,HC IV,Government,MOH,Functional,NA,LWENGO,BUKOTO,KYAZANGA TOWN COUNCIL,exact_clean_name_match,37,Kyazanga HC IV,HC IV,0,0,0,0,0.00657904,0.33142973,0.19884848,0.2651391,31.31989,-0.38311,TRUE
HF0446,HF0446,38,Lwengo HC IV,LWENGO HC IV,HC IV,Government,SOUTH BUGANDA,31.44103,-0.43718,TRUE,facilities_master_by_facility_id,1,0,0,0,1,0.75,weak_hub_score_1,FALSE,FALSE,FALSE,TRUE,FALSE,142999,0,0,0.051725,0.141132,Lwengo HC IV,LWENGO HC IV,HC IV,Government,MOH,Functional,NA,LWENGO,BUKOTO,LWENGO,exact_clean_name_match,38,Lwengo HC IV,HC IV,1,0,0,0,0.00730005,0.3761792,0.20906549,0.29262235,31.44103,-0.43718,TRUE
HF0465,HF0465,39,Lyantonde HOSPITAL,LYANTONDE HOSPITAL,General Hospital,Government,SOUTH BUGANDA,31.15287,-0.39364,TRUE,facilities_master_by_facility_id,1,1,1,1,4,0,full_hub_score_4,TRUE,TRUE,TRUE,TRUE,TRUE,130642,65,0,0.042619,0.127183,Lyantonde HOSPITAL,LYANTONDE HOSPITAL,General Hospital,Government,MOH,Functional,NA,LYANTONDE,KABULA,LYANTONDE TOWN COUNCIL,exact_clean_name_match,39,Lyantonde HOSPITAL,General Hospital,1,1,1,1,0.00542041,0.26087397,0.17816413,0.21951905,31.15287,-0.39364,TRUE
HF0494,HF0494,40,Masaka REGIONAL REF HOSPITAL,MASAKA REGIONAL REF HOSPITAL,RR Hospital,Government,SOUTH BUGANDA,31.7344,-0.3294,TRUE,facilities_master_by_facility_id,0,0,0,1,1,0.75,weak_hub_score_1,FALSE,FALSE,FALSE,TRUE,TRUE,159156,2603,32,0.058916,0.12859400000000001,Masaka REGIONAL REF HOSPITAL,MASAKA REGIONAL REF HOSPITAL,RR Hospital,Government,MOH,Functional,NA,MASAKA,MASAKA MUNICIPALITY,KIMAANYA-KYABAKUZA DIVISION,exact_clean_name_match,40,Masaka REGIONAL REF HOSPITAL,RR Hospital,0,0,0,1,0.00757624,0.46723564,0.18128993,0.32426278,31.7344,-0.3294,TRUE
HF0499,HF0499,41,Kyannamukaaka HC IV,KYANNAMUKAAKA HC IV,HC IV,Government,SOUTH BUGANDA,31.71043,-0.50911,TRUE,facilities_master_by_facility_id,0,0,0,1,1,0.75,weak_hub_score_1,FALSE,FALSE,FALSE,TRUE,TRUE,73642,0,0,0.059743,0.127053,Kyannamukaaka HC IV,KYANNAMUKAAKA HC IV,HC IV,Government,MOH,Functional,NA,MASAKA,BUKOTO,KYANAMUKAAKA,exact_clean_name_match,41,Kyannamukaaka HC IV,HC IV,0,0,0,1,0.00759053,0.47770757,0.17787614,0.32779186,31.71043,-0.50911,TRUE
HF0505,HF0505,42,Kiyumba HC IV,KIYUMBA HC IV,HC IV,Government,SOUTH BUGANDA,31.81864,-0.33847,TRUE,facilities_master_by_facility_id,0,0,0,0,0,1,not_ready_score_0,FALSE,FALSE,FALSE,FALSE,FALSE,53833,0,0,0.061804,0.119694,Kiyumba HC IV,KIYUMBA HC IV,HC IV,Government,MOH,Functional,NA,MASAKA,BUKOTO,MUKUNGWE,exact_clean_name_match,42,Kiyumba HC IV,HC IV,0,0,0,0,0.00739757,0.5038051,0.16157367,0.33268939,31.81864,-0.33847,TRUE
HF0506,HF0506,43,St. Joseph Kitovu HOSPITAL,SAINT JOSEPH KITOVU HOSPITAL,General Hospital,Private Not For Profit,SOUTH BUGANDA,31.75956,-0.34402,TRUE,facilities_master_by_facility_id,1,1,0,1,3,0.25,strong_hub_score_3,TRUE,TRUE,FALSE,TRUE,TRUE,86572,434,1,0.061262,0.122943,St. Joseph Kitovu HOSPITAL,SAINT JOSEPH KITOVU HOSPITAL,General Hospital,Private Not For Profit,UCMB,Functional,NA,MASAKA,MASAKA MUNICIPALITY,NYENDO-SSENYANGE DIVISION,exact_clean_name_match,43,St. Joseph Kitovu HOSPITAL,General Hospital,1,1,0,1,0.00753173,0.49694199,0.16877121,0.3328566,31.75956,-0.34402,TRUE
HF0537,HF0537,44,Mwera HC IV,MWERA HC IV,HC IV,Government,NORTH BUGANDA,32.12009,0.31608,TRUE,facilities_master_by_facility_id,0,0,0,0,0,1,not_ready_score_0,FALSE,FALSE,FALSE,FALSE,FALSE,61345,0,0,0.066734,0.130469,Mwera HC IV,MWERA HC IV,HC IV,Government,MOH,Functional,NA,MITYANA,BUSUJJU,KAKINDU,exact_clean_name_match,44,Mwera HC IV,HC IV,0,0,0,0,0.00870672,0.5662315,0.18544364,0.37583757,32.12009,0.31608,TRUE
HF0540,HF0540,45,Kyantungo HC IV,KYANTUNGO HC IV,HC IV,Government,NORTH BUGANDA,32.02506,0.585167,TRUE,facilities_master_by_facility_id,0,0,0,0,0,1,not_ready_score_0,FALSE,FALSE,FALSE,FALSE,FALSE,79995,0,0,0.06594,0.148505,Kyantungo HC IV,KYANTUNGO HC IV,HC IV,Government,MOH,NA,NA,MITYANA,MITYANA,KALANGAALO,exact_clean_name_match,45,Kyantungo HC IV,HC IV,0,0,0,0,0.00979242,0.55617743,0.22539898,0.3907882,32.02506,0.585167,TRUE
HF0550,HF0550,46,Mityana HOSPITAL,MITYANA HOSPITAL,General Hospital,Government,NORTH BUGANDA,32.04131,0.3978,TRUE,facilities_master_by_facility_id,0,0,1,1,2,0.5,partial_hub_score_2,TRUE,FALSE,FALSE,TRUE,TRUE,129409,226,7,0.065065,0.133276,Mityana HOSPITAL,MITYANA HOSPITAL,General Hospital,Government,MOH,Functional,NA,MITYANA,MITYANA MUNICIPALITY,CENTRAL DIVISION,exact_clean_name_match,46,Mityana HOSPITAL,General Hospital,0,0,1,1,0.0086716,0.54509769,0.19166201,0.36837985,32.04131,0.3978,TRUE
HF0560,HF0560,47,Ssekanyonyi HC IV,SSEKANYONYI HC IV,HC IV,Government,NORTH BUGANDA,32.14177,0.50056,TRUE,facilities_master_by_facility_id,0,0,0,0,0,1,not_ready_score_0,FALSE,FALSE,FALSE,FALSE,FALSE,53235,0,0,0.06732,0.140485,Ssekanyonyi HC IV,SSEKANYONYI HC IV,HC IV,Government,MOH,Functional,NA,MITYANA,MITYANA,SSEKANYONYI,exact_clean_name_match,47,Ssekanyonyi HC IV,HC IV,0,0,0,0,0.00945745,0.57365175,0.20763219,0.39064197,32.14177,0.50056,TRUE
HF0583,HF0583,48,Mpigi HC IV,MPIGI HC IV,HC IV,Government,SOUTH BUGANDA,32.32213,0.22554,TRUE,facilities_master_by_facility_id,0,0,0,0,0,1,not_ready_score_0,FALSE,FALSE,FALSE,FALSE,FALSE,267404,0,0,0.069,0.113115,Mpigi HC IV,MPIGI HC IV,HC IV,Government,MOH,Functional,NA,MPIGI,MAWOKOTA,MPIGI TOWN COUNCIL,exact_clean_name_match,48,Mpigi   HC IV,HC IV,0,0,0,0,0.00780493,0.59492485,0.14699914,0.37096199,32.32213,0.22554,TRUE
HF0588,HF0588,49,Nkozi HOSPITAL,NKOZI HOSPITAL,General Hospital,Private Not For Profit,SOUTH BUGANDA,32.01653,0.00257,TRUE,facilities_master_by_facility_id,1,0,0,1,2,0.5,partial_hub_score_2,TRUE,FALSE,FALSE,TRUE,TRUE,123986,157,4,0.063006,0.115439,Nkozi HOSPITAL,NKOZI HOSPITAL,General Hospital,Private Not For Profit,UCMB,Functional,NA,MPIGI,MAWOKOTA,NKOZI,exact_clean_name_match,49,Nkozi HOSPITAL,General Hospital,1,0,0,1,0.00727335,0.51902549,0.15214752,0.3355865,32.01653,0.00257,TRUE
HF0608,HF0608,50,Kassanda HC IV,KASSANDA HC IV,HC IV,Government,NORTH BUGANDA,31.8214,0.5515,TRUE,facilities_master_by_facility_id,0,0,0,0,0,1,not_ready_score_0,FALSE,FALSE,FALSE,FALSE,FALSE,193413,0,0,0.062204,0.15349,Kassanda HC IV,KASSANDA HC IV,HC IV,Government,MOH,Functional,NA,MUBENDE,KASSANDA,KASSANDA,exact_clean_name_match,50,Kassanda HC IV,HC IV,0,0,0,0,0.00954769,0.50887012,0.2364423,0.37265621,31.8214,0.5515,TRUE
HF0615,HF0615,51,Kiganda HC IV,KIGANDA HC IV,HC IV,Government,NORTH BUGANDA,31.68427,0.44964,TRUE,facilities_master_by_facility_id,1,0,0,0,1,0.75,weak_hub_score_1,FALSE,FALSE,FALSE,TRUE,FALSE,183110,0,0,0.05969,0.169031,Kiganda HC IV,KIGANDA HC IV,HC IV,Government,MOH,Functional,NA,MUBENDE,KASSANDA,KIGANDA,exact_clean_name_match,51,Kiganda HC IV,HC IV,1,0,0,0,0.01008946,0.47703646,0.27087044,0.37395345,31.68427,0.44964,TRUE
HF0650,HF0650,52,Mubende RR HOSPITAL,MUBENDE RR HOSPITAL,RR Hospital,Government,NORTH BUGANDA,31.39248,0.56742,TRUE,facilities_master_by_facility_id,1,0,1,1,3,0.25,strong_hub_score_3,TRUE,TRUE,FALSE,TRUE,TRUE,250907,0,0,0.053702,0.191425,Mubende RR HOSPITAL,MUBENDE RR HOSPITAL,RR Hospital,Government,MOH,Functional,NA,MUBENDE,MUBENDE MUNICIPALITY,EASTERN DIVISION,exact_clean_name_match,52,Mubende RR HOSPITAL,RR Hospital,1,0,1,1,0.01027991,0.40121307,0.3204801,0.36084658,31.39248,0.56742,TRUE
HF0678,HF0678,53,Mukono T.C. HC IV,MUKONO T C HC IV,HC IV,Government,KAMPALA,32.74702,0.36091,TRUE,facilities_master_by_facility_id,0,0,0,0,0,1,not_ready_score_0,FALSE,FALSE,FALSE,FALSE,FALSE,261527,0,0,0.082236,0.142441,Mukono T.C. HC IV,MUKONO T C HC IV,HC IV,Government,MOH,Functional,NA,MUKONO,MUKONO MUNICIPALITY,CENTRAL DIVISION,exact_clean_name_match,53,Mukono  T.C. HC IV,HC IV,0,0,0,0,0.01171378,0.76252643,0.21196533,0.48724588,32.74702,0.36091,TRUE
HF0680,HF0680,54,St. Francis HOSPITAL Naggalama,SAINT FRANCIS HOSPITAL NAGGALAMA,General Hospital,Private Not For Profit,KAMPALA,32.78198,0.52425,TRUE,facilities_master_by_facility_id,0,0,0,1,1,0.75,weak_hub_score_1,FALSE,FALSE,FALSE,TRUE,TRUE,249722,2021,5,0.085646,0.203078,St. Francis HOSPITAL Naggalama,SAINT FRANCIS HOSPITAL NAGGALAMA,General Hospital,Private Not For Profit,UCMB,Functional,NA,MUKONO,NAKIFUMA,NABBAALE,exact_clean_name_match,54,St. Francis HOSPITAL Naggalama,General Hospital,0,0,0,1,0.01739282,0.80570575,0.34629511,0.57600043,32.78198,0.52425,TRUE
HF0698,HF0698,55,Kojja HC IV,KOJJA HC IV,HC IV,Government,KAMPALA,32.79638,0.20796,TRUE,facilities_master_by_facility_id,0,0,0,0,0,1,not_ready_score_0,FALSE,FALSE,FALSE,FALSE,FALSE,79842,0,0,0.083817,0.145438,Kojja HC IV,KOJJA HC IV,HC IV,Government,MOH,Functional,NA,MUKONO,MUKONO,NTENJERU,exact_clean_name_match,55,Kojja HC IV,HC IV,0,0,0,0,0.01219018,0.78254593,0.21860462,0.50057527,32.79638,0.20796,TRUE
HF0715,HF0715,56,Kiwoko HOSPITAL,KIWOKO HOSPITAL,General Hospital,Private Not For Profit,NORTH BUGANDA,32.36132,0.84015,TRUE,facilities_master_by_facility_id,1,0,1,1,3,0.25,strong_hub_score_3,TRUE,TRUE,FALSE,TRUE,TRUE,51687,711,12,0.076514,0.18866,Kiwoko HOSPITAL,KIWOKO HOSPITAL,General Hospital,Private Not For Profit,NA,Functional,NA,NAKASEKE,NAKASEKE,KIWOKO TOWN COUNCIL,exact_clean_name_match,56,Kiwoko HOSPITAL,General Hospital,1,0,1,1,0.01443513,0.69007129,0.31435477,0.50221303,32.36132,0.84015,TRUE
HF0718,HF0718,57,Nakaseke HOSPITAL,NAKASEKE HOSPITAL,General Hospital,Government,NORTH BUGANDA,32.39886,0.71746,TRUE,facilities_master_by_facility_id,1,1,1,1,4,0,full_hub_score_4,TRUE,TRUE,TRUE,TRUE,TRUE,70751,173,6,0.076875,0.183391,Nakaseke HOSPITAL,NAKASEKE HOSPITAL,General Hospital,Government,MOH,Functional,NA,NAKASEKE,NAKASEKE,NAKASEKE TOWN COUNCIL,exact_clean_name_match,57,Nakaseke HOSPITAL,General Hospital,1,1,1,1,0.01409818,0.69464247,0.3026823,0.49866239,32.39886,0.71746,TRUE
HF0720,HF0720,58,Ngoma HC IV,NGOMA HC IV,HC IV,Government,NORTH BUGANDA,32.1744,1.17613,TRUE,facilities_master_by_facility_id,1,1,0,0,2,0.5,partial_hub_score_2,TRUE,FALSE,FALSE,TRUE,FALSE,4217,0,0,0.077733,0.197114,Ngoma HC IV,NGOMA HC IV,HC IV,Government,MOH,Functional,NA,NAKASEKE,NAKASEKE,KINYOGOGA,exact_clean_name_match,58,Ngoma HC IV,HC IV,1,1,0,0,0.01532226,0.70550695,0.333083,0.51929497,32.1744,1.17613,TRUE
HF0724,HF0724,59,Semuto HC IV,SEMUTO HC IV,HC IV,Government,NORTH BUGANDA,32.32708,0.62263,TRUE,facilities_master_by_facility_id,0,0,0,0,0,1,not_ready_score_0,FALSE,FALSE,FALSE,FALSE,FALSE,115960,0,0,0.072982,0.154635,Semuto HC IV,SEMUTO HC IV,HC IV,Government,MOH,Functional,NA,NAKASEKE,NAKASEKE,SEMUTO TOWN COUNCIL,exact_clean_name_match,59,Semuto HC IV,HC IV,0,0,0,0,0.01128557,0.64534714,0.23897883,0.44216299,32.32708,0.62263,TRUE
HF0732,HF0732,60,St. Franciscan HC IV,SAINT FRANCISCAN HC IV,HC IV,Private Not For Profit,NORTH BUGANDA,32.46718,1.06564,TRUE,facilities_master_by_facility_id,0,0,0,0,0,1,not_ready_score_0,FALSE,FALSE,FALSE,FALSE,FALSE,23060,0,0,0.084879,0.220551,St. Franciscan HC IV,SAINT FRANCISCAN HC IV,HC IV,Private Not For Profit,Local Government,Functional,NA,NAKASONGOLA,BURULI,KAKOOGE TOWN COUNCIL,exact_clean_name_match,60,St. Franciscan HC IV,HC IV,0,0,0,0,0.01872015,0.79599357,0.38500323,0.5904984,32.46718,1.06564,TRUE
HF0741,HF0741,61,Nakasongola Military HOSPITAL,NAKASONGOLA MILITARY HOSPITAL,General Hospital,Government,NORTH BUGANDA,32.49771,1.39135,TRUE,facilities_master_by_facility_id,0,0,0,1,1,0.75,weak_hub_score_1,FALSE,FALSE,FALSE,TRUE,TRUE,7978,13,0,0.087095,0.256001,Nakasongola Military HOSPITAL,NAKASONGOLA MILITARY HOSPITAL,General Hospital,Government,Army,Functional,NA,NAKASONGOLA,BURULI,LWAMPANGA,exact_clean_name_match,61,Nakasongola Military HOSPITAL,General Hospital,0,0,0,1,0.02229641,0.82405379,0.46353599,0.64379489,32.49771,1.39135,TRUE
HF0752,HF0752,62,Nakasongola HC IV,NAKASONGOLA HC IV,HC IV,Government,NORTH BUGANDA,32.466485,1.324991,TRUE,facilities_master_by_facility_id,0,0,1,1,2,0.5,partial_hub_score_2,TRUE,FALSE,FALSE,TRUE,TRUE,39471,304,2,0.086272,0.237672,Nakasongola HC IV,NAKASONGOLA HC IV,HC IV,Government,MOH,Functional,NA,NAKASONGOLA,BURULI,NAKASONGOLA TOWN COUNCIL,exact_clean_name_match,62,Nakasongola HC IV,HC IV,0,0,1,1,0.02050444,0.81363251,0.42293156,0.61828204,32.466485,1.324991,TRUE
HF0773,HF0773,63,Kakuuto HC IV,KAKUUTO HC IV,HC IV,Government,SOUTH BUGANDA,31.48059,-0.85906,TRUE,facilities_master_by_facility_id,0,0,0,0,0,1,not_ready_score_0,FALSE,FALSE,FALSE,FALSE,FALSE,257871,0,0,0.048866,0.122651,Kakuuto HC IV,KAKUUTO HC IV,HC IV,Government,MOH,Functional,NA,RAKAI,KAKUUTO,KAKUUTO,exact_clean_name_match,63,Kakuuto HC IV,HC IV,0,0,0,0,0.00599346,0.33997695,0.16812434,0.25405065,31.48059,-0.85906,TRUE
HF0777,HF0777,64,Kalisizo HOSPITAL,KALISIZO HOSPITAL,General Hospital,Government,SOUTH BUGANDA,31.62277,-0.53569,TRUE,facilities_master_by_facility_id,1,1,1,1,4,0,full_hub_score_4,TRUE,TRUE,TRUE,TRUE,TRUE,176754,149,5,0.057151,0.133475,Kalisizo HOSPITAL,KALISIZO HOSPITAL,General Hospital,Government,MOH,Functional,NA,RAKAI,KYOTERA,KALISIZO TOWN COUNCIL,exact_clean_name_match,64,Kalisizo HOSPITAL,General Hospital,1,1,1,1,0.00762823,0.44488623,0.19210286,0.31849454,31.62277,-0.53569,TRUE
HF0854,HF0854,65,Bamu HOSPITAL,BAMU HOSPITAL,General Hospital,Private For Profit,SOUTH BUGANDA,31.49315,-0.24348,TRUE,facilities_master_by_facility_id,0,0,1,1,2,0.5,partial_hub_score_2,TRUE,FALSE,FALSE,TRUE,TRUE,96347,86,3,0.053901,0.149795,Bamu HOSPITAL,BAMU HOSPITAL,General Hospital,Private For Profit,Local Government,Functional,NA,SSEMBABULE,MAWOGOLA,MATEETE TOWN COUNCIL,exact_clean_name_match,65,Bamu  HOSPITAL,General Hospital,0,0,1,1,0.0080741,0.40373292,0.22825673,0.31599482,31.49315,-0.24348,TRUE
HF0859,HF0859,66,Ntuusi HC IV,NTUUSI HC IV,HC IV,Government,SOUTH BUGANDA,31.214605,0.054474,TRUE,facilities_master_by_facility_id,0,0,0,0,0,1,not_ready_score_0,FALSE,FALSE,FALSE,FALSE,FALSE,30912,0,0,0.04622,0.188201,Ntuusi HC IV,NTUUSI HC IV,HC IV,Government,MOH,Functional,NA,SSEMBABULE,LWEMIYAGA,NTUUSI,exact_clean_name_match,66,Ntuusi HC IV,HC IV,0,0,0,0,0.00869865,0.30647183,0.31333794,0.30990489,31.214605,0.054474,TRUE
HF0860,HF0860,67,Ssembabule HC IV,SSEMBABULE HC IV,HC IV,Government,SOUTH BUGANDA,31.461373,-0.088239,TRUE,facilities_master_by_facility_id,1,0,0,0,1,0.75,weak_hub_score_1,FALSE,FALSE,FALSE,TRUE,FALSE,113368,0,0,0.051831,0.166967,Ssembabule HC IV,SSEMBABULE HC IV,HC IV,Government,MOH,Functional,NA,SSEMBABULE,MAWOGOLA,SSEMBABULE TOWN COUNCIL,exact_clean_name_match,67,Ssembabule HC IV,HC IV,1,0,0,0,0.00865407,0.37752143,0.26629804,0.32190973,31.461373,-0.088239,TRUE
HF0873,HF0873,68,Buwambo HC IV,BUWAMBO HC IV,HC IV,Government,KAMPALA,32.54581,0.50131,TRUE,facilities_master_by_facility_id,0,0,0,0,0,1,not_ready_score_0,FALSE,FALSE,FALSE,FALSE,FALSE,171754,0,0,0.076843,0.134294,Buwambo HC IV,BUWAMBO HC IV,HC IV,Government,Local Government,Functional,NA,WAKISO,NANSANA MUNICIPALITY,GOMBE DIVISION,exact_clean_name_match,68,Buwambo HC IV,HC IV,0,0,0,0,0.01031955,0.69423727,0.1939172,0.44407724,32.54581,0.50131,TRUE
HF0883,HF0883,69,Luwunga Barracks HC IV,LUWUNGA BARRACKS HC IV,HC IV,NA,KAMPALA,32.40523,0.40431,TRUE,facilities_master_by_facility_id,0,0,0,0,0,1,not_ready_score_0,FALSE,FALSE,FALSE,FALSE,FALSE,242339,9,0,0.07264,0.122326,Luwunga Barracks HC IV,LUWUNGA BARRACKS HC IV,HC IV,NA,Army,NA,NA,WAKISO,BUSIRO,KAKIRI,exact_clean_name_match,69,Luwunga Barracks HC IV,HC IV,0,0,0,0,0.00888576,0.64101655,0.16740437,0.40421046,32.40523,0.40431,TRUE
HF0887,HF0887,70,Kisubi HOSPITAL,KISUBI HOSPITAL,General Hospital,Private Not For Profit,KAMPALA,32.5369,0.1218,TRUE,facilities_master_by_facility_id,1,0,1,1,3,0.25,strong_hub_score_3,TRUE,TRUE,FALSE,TRUE,TRUE,538746,149,2,0.072467,0.11442,Kisubi HOSPITAL,KISUBI HOSPITAL,General Hospital,Private Not For Profit,UCMB,Functional,NA,WAKISO,BUSIRO,KATABI TOWN COUNCIL,exact_clean_name_match,70,Kisubi HOSPITAL,General Hospital,1,0,1,1,0.00829167,0.63882593,0.14989012,0.39435803,32.5369,0.1218,TRUE
HF0889,HF0889,71,Uganda Martyrs HOSPITAL,UGANDA MARTYRS HOSPITAL,General Hospital,Private Not For Profit,KAMPALA,32.653,0.37667,TRUE,facilities_master_by_facility_id,0,0,0,1,1,0.75,weak_hub_score_1,FALSE,FALSE,FALSE,TRUE,TRUE,426954,2,0,0.082763,0.121406,Uganda Martyrs HOSPITAL,UGANDA MARTYRS HOSPITAL,General Hospital,Private Not For Profit,Local Government,Functional,NA,WAKISO,KIRA MUNICIPALITY,NAMUGONGO DIVISION,exact_clean_name_match,71,Uganda Martyrs HOSPITAL,General Hospital,0,0,0,1,0.01004792,0.7691996,0.16536628,0.46728294,32.653,0.37667,TRUE
HF0919,HF0919,72,Namayumba HC IV,NAMAYUMBA HC IV,HC IV,Government,KAMPALA,32.26561,0.52163,TRUE,facilities_master_by_facility_id,0,0,0,0,0,1,not_ready_score_0,FALSE,FALSE,FALSE,FALSE,FALSE,173431,0,0,0.070779,0.134343,Namayumba HC IV,NAMAYUMBA HC IV,HC IV,Government,MOH,Functional,NA,WAKISO,BUSIRO,NAMAYUMBA TOWN COUNCIL,exact_clean_name_match,72,Namayumba HC IV,HC IV,0,0,0,0,0.00950866,0.61745153,0.19402575,0.40573864,32.26561,0.52163,TRUE
HF0921,HF0921,73,Saidina Abubakar Islamic HOSPITAL,SAIDINA ABUBAKAR ISLAMIC HOSPITAL,General Hospital,Private Not For Profit,KAMPALA,32.53495,0.43534,TRUE,facilities_master_by_facility_id,0,0,0,1,1,0.75,weak_hub_score_1,FALSE,FALSE,FALSE,TRUE,TRUE,271032,14,0,0.07639,0.120378,Saidina Abubakar Islamic HOSPITAL,SAIDINA ABUBAKAR ISLAMIC HOSPITAL,General Hospital,Private Not For Profit,UMMB,Functional,NA,WAKISO,KYADONDO,KASANGATI TOWN COUNCIL,exact_clean_name_match,73,Saidina Abubakar Islamic HOSPITAL,General Hospital,0,0,0,1,0.00919568,0.68850113,0.16308894,0.42579503,32.53495,0.43534,TRUE
HF0926,HF0926,74,Kasangati HC IV,KASANGATI HC IV,HC IV,Government,KAMPALA,32.60107,0.43513,TRUE,facilities_master_by_facility_id,0,0,0,0,0,1,not_ready_score_0,FALSE,FALSE,FALSE,FALSE,FALSE,386003,0,0,0.08082,0.138618,Kasangati HC IV,KASANGATI HC IV,HC IV,Government,MOH,Functional,NA,WAKISO,KYADONDO,KASANGATI TOWN COUNCIL,exact_clean_name_match,74,Kasangati HC IV,HC IV,0,0,0,0,0.01120311,0.74459625,0.2034962,0.47404622,32.60107,0.43513,TRUE
HF0940,HF0940,75,Mildmay Uganda HOSPITAL,MILDMAY UGANDA HOSPITAL,General Hospital,Private Not For Profit,KAMPALA,32.548866,0.229957,TRUE,facilities_master_by_facility_id,0,0,0,0,0,1,not_ready_score_0,FALSE,FALSE,FALSE,FALSE,FALSE,492592,31,0,0.073152,0.107289,Mildmay Uganda HOSPITAL,MILDMAY UGANDA HOSPITAL,General Hospital,Private Not For Profit,NA,Functional,NA,WAKISO,MAKINDYE SSABAGABO MUNICIPALITY,NDEJJE DIVISION,exact_clean_name_match,75,Mildmay Uganda HOSPITAL,General Hospital,0,0,0,0,0.0078484,0.64749978,0.13409274,0.39079626,32.548866,0.229957,TRUE
HF0948,HF0948,76,Ndejje HC IV,NDEJJE HC IV,HC IV,Government,KAMPALA,32.5789,0.24284,TRUE,facilities_master_by_facility_id,0,0,0,0,0,1,not_ready_score_0,FALSE,FALSE,FALSE,FALSE,FALSE,65353,0,0,0.077174,0.095295,Ndejje HC IV,NDEJJE HC IV,HC IV,Government,MOH,Functional,NA,WAKISO,MAKINDYE SSABAGABO MUNICIPALITY,NDEJJE DIVISION,exact_clean_name_match,76,Ndejje HC IV,HC IV,0,0,0,0,0.0073543,0.69842858,0.10752231,0.40297544,32.5789,0.24284,TRUE
HF0957,HF0957,77,Wakiso HC IV,WAKISO HC IV,HC IV,Government,KAMPALA,32.4774,0.39639,TRUE,facilities_master_by_facility_id,0,0,0,0,0,1,not_ready_score_0,FALSE,FALSE,FALSE,FALSE,FALSE,166302,0,0,0.074874,0.116598,Wakiso HC IV,WAKISO HC IV,HC IV,Government,MOH,Functional,NA,WAKISO,BUSIRO,WAKISO TOWN COUNCIL,exact_clean_name_match,77,Wakiso HC IV,HC IV,0,0,0,0,0.00873016,0.6693047,0.15471507,0.41200989,32.4774,0.39639,TRUE
HF0966,HF0966,78,Amuria HC IV,AMURIA HC IV,HC IV,Government,TESO,33.64034,2.03481,TRUE,facilities_master_by_facility_id,0,0,0,0,0,1,not_ready_score_0,FALSE,FALSE,FALSE,FALSE,FALSE,240177,0,0,0.077923,0.420749,Amuria HC IV,AMURIA HC IV,HC IV,Government,MOH,Functional,NA,AMURIA,AMURIA,AMURIA TOWN COUNCIL,exact_clean_name_match,78,Amuria HC IV,HC IV,0,0,0,0,0.03278602,0.70791283,0.82850396,0.7682084,33.64034,2.03481,TRUE
HF0975,HF0975,79,Kapelebyong HC IV,KAPELEBYONG HC IV,HC IV,Government,TESO,33.77463,2.27848,TRUE,facilities_master_by_facility_id,1,0,0,1,2,0.5,partial_hub_score_2,TRUE,FALSE,FALSE,TRUE,TRUE,62411,192,5,0.06439,0.498163,Kapelebyong HC IV,KAPELEBYONG HC IV,HC IV,Government,MOH,Functional,NA,AMURIA,KAPELEBYONG,KAPELEBYONG,exact_clean_name_match,79,Kapelebyong HC IV,HC IV,1,0,0,1,0.03207672,0.53655047,1,0.76827523,33.77463,2.27848,TRUE
HF0998,HF0998,80,Budaka HC IV,BUDAKA HC IV,HC IV,Government,BUKEDI,33.95179,1.01983,TRUE,facilities_master_by_facility_id,1,1,0,0,2,0.5,partial_hub_score_2,TRUE,FALSE,FALSE,TRUE,FALSE,230903,0,0,0.089879,0.235467,Budaka HC IV,BUDAKA HC IV,HC IV,Government,MOH,Functional,NA,BUDAKA,BUDAKA,BUDAKA TOWN COUNCIL,exact_clean_name_match,80,Budaka HC IV,HC IV,1,1,0,0,0.02116354,0.85930635,0.41804681,0.63867658,33.95179,1.01983,TRUE
HF1015,HF1015,81,Bududa HOSPITAL,BUDUDA HOSPITAL,General Hospital,Government,BUGISU,34.332262,1.00907,TRUE,facilities_master_by_facility_id,1,0,1,1,3,0.25,strong_hub_score_3,TRUE,TRUE,FALSE,TRUE,TRUE,388002,206,9,0.066579,0.191692,Bududa HOSPITAL,BUDUDA HOSPITAL,General Hospital,Government,MOH,Functional,NA,BUDUDA,MANJIYA,BUDUDA TOWN COUNCIL,exact_clean_name_match,81,Bududa HOSPITAL,General Hospital,1,0,1,1,0.01276266,0.5642688,0.32107159,0.4426702,34.332262,1.00907,TRUE
HF1032,HF1032,82,Bugiri HOSPITAL,BUGIRI HOSPITAL,General Hospital,Government,BUSOGA,33.742088,0.575261,TRUE,facilities_master_by_facility_id,1,1,1,1,4,0,full_hub_score_4,TRUE,TRUE,TRUE,TRUE,TRUE,292996,551,9,0.092077,0.270391,Bugiri HOSPITAL,BUGIRI HOSPITAL,General Hospital,Government,MOH,Functional,NA,BUGIRI,BUGIRI MUNICIPALITY,WESTERN DIVISION,exact_clean_name_match,82,Bugiri HOSPITAL,General Hospital,1,1,1,1,0.02489679,0.88713864,0.49541431,0.69127648,33.742088,0.575261,TRUE
HF1063,HF1063,83,Nankoma HC IV,NANKOMA HC IV,HC IV,Government,BUSOGA,33.678343,0.454007,TRUE,facilities_master_by_facility_id,0,0,0,0,0,1,not_ready_score_0,FALSE,FALSE,FALSE,FALSE,FALSE,232165,0,0,0.092523,0.333979,Nankoma HC IV,NANKOMA HC IV,HC IV,Government,MOH,Functional,NA,BUGIRI,BUKOOLI NORTH,NANKOMA,exact_clean_name_match,83,Nankoma HC IV,HC IV,0,0,0,0,0.03090074,0.89278614,0.63628147,0.76453381,33.678343,0.454007,TRUE
HF1065,HF1065,84,Bukedea HC IV,BUKEDEA HC IV,HC IV,Government,TESO,34.04192,1.33219,TRUE,facilities_master_by_facility_id,0,0,0,0,0,1,not_ready_score_0,FALSE,FALSE,FALSE,FALSE,FALSE,180776,0,0,0.071101,0.333491,Bukedea HC IV,BUKEDEA HC IV,HC IV,Government,MOH,Functional,NA,BUKEDEA,BUKEDEA,BUKEDEA TOWN COUNCIL,exact_clean_name_match,84,Bukedea HC IV,HC IV,0,0,0,0,0.02371154,0.62152888,0.6352004,0.62836464,34.04192,1.33219,TRUE
HF1092,HF1092,85,Muyembe HC IV,MUYEMBE HC IV,HC IV,Government,BUGISU,34.29106,1.33071,TRUE,facilities_master_by_facility_id,0,0,0,0,0,1,not_ready_score_0,FALSE,FALSE,FALSE,FALSE,FALSE,278504,0,0,0.056308,0.22125,Muyembe HC IV,MUYEMBE HC IV,HC IV,Government,MOH,Functional,NA,BULAMBULI,BULAMBULI,BULAMBULI TOWN COUNCIL,exact_clean_name_match,85,Muyembe HC IV,HC IV,0,0,0,0,0.01245814,0.43421169,0.38655174,0.41038171,34.29106,1.33071,TRUE
HF1113,HF1113,86,Dabani HOSPITAL,DABANI HOSPITAL,General Hospital,Private Not For Profit,BUKEDI,34.051798,0.439779,TRUE,facilities_master_by_facility_id,1,1,1,1,4,0,full_hub_score_4,TRUE,TRUE,TRUE,TRUE,TRUE,297299,556,5,0.09492,0.359669,Dabani HOSPITAL,DABANI HOSPITAL,General Hospital,Private Not For Profit,UCMB,Functional,NA,BUSIA,SAMIA-BUGWE,DABANI,exact_clean_name_match,86,Dabani HOSPITAL,General Hospital,1,1,1,1,0.03413978,0.92313829,0.69319279,0.80816554,34.051798,0.439779,TRUE
HF1125,HF1125,87,Busolwe HOSPITAL,BUSOLWE HOSPITAL,General Hospital,Government,BUKEDI,33.928311,0.852506,TRUE,facilities_master_by_facility_id,1,1,1,1,4,0,full_hub_score_4,TRUE,TRUE,TRUE,TRUE,TRUE,195701,679,11,0.093691,0.219096,Busolwe HOSPITAL,BUSOLWE HOSPITAL,General Hospital,Government,MOH,Functional,NA,BUTALEJA,BUNYOLE,BUSOLWE TOWN COUNCIL,exact_clean_name_match,87,Busolwe HOSPITAL,General Hospital,1,1,1,1,0.02052732,0.90757601,0.38177996,0.64467798,33.928311,0.852506,TRUE
HF1130,HF1130,88,Kabasa Memorial HOSPITAL,KABASA MEMORIAL HOSPITAL,General Hospital,Private Not For Profit,BUKEDI,34.0327,0.95557,TRUE,facilities_master_by_facility_id,0,0,0,0,0,1,not_ready_score_0,FALSE,FALSE,FALSE,FALSE,FALSE,182641,11,0,0.086744,0.205876,Kabasa Memorial HOSPITAL,KABASA MEMORIAL HOSPITAL,General Hospital,Private Not For Profit,Local Government,Functional,NA,BUTALEJA,BUNYOLE,MAZIMASA,exact_clean_name_match,88,Kabasa Memorial HOSPITAL,General Hospital,0,0,0,0,0.01785851,0.81960923,0.35249355,0.58605139,34.0327,0.95557,TRUE
HF1147,HF1147,89,Kidera HC IV,KIDERA HC IV,HC IV,Government,BUSOGA,32.989,1.33687,TRUE,facilities_master_by_facility_id,1,1,0,0,2,0.5,partial_hub_score_2,TRUE,FALSE,FALSE,TRUE,FALSE,111894,0,0,0.08849,0.327385,Kidera HC IV,KIDERA HC IV,HC IV,Government,MOH,Functional,NA,BUYENDE,BUDIOPE,KIDERA,exact_clean_name_match,89,Kidera HC IV,HC IV,1,1,0,0,0.0289703,0.84171806,0.62167371,0.73169589,32.989,1.33687,TRUE
HF1165,HF1165,90,Busesa HC IV,BUSESA HC IV,HC IV,Government,BUSOGA,33.59166,0.62609,TRUE,facilities_master_by_facility_id,0,0,0,0,0,1,not_ready_score_0,FALSE,FALSE,FALSE,FALSE,FALSE,136566,0,0,0.084865,0.321657,Busesa HC IV,BUSESA HC IV,HC IV,Government,MOH,Functional,NA,IGANGA,BUGWERI,IBULANKU,exact_clean_name_match,90,Busesa HC IV,HC IV,0,0,0,0,0.02729742,0.79581629,0.60898441,0.70240035,33.59166,0.62609,TRUE
HF1166,HF1166,91,Iganga HOSPITAL,IGANGA HOSPITAL,General Hospital,Government,BUSOGA,33.48449,0.61649,TRUE,facilities_master_by_facility_id,1,1,1,1,4,0,full_hub_score_4,TRUE,TRUE,TRUE,TRUE,TRUE,449866,1041,5,0.092036,0.345232,Iganga HOSPITAL,IGANGA HOSPITAL,General Hospital,Government,MOH,Functional,NA,IGANGA,IGANGA MUNICIPALITY,CENTRAL DIVISION,exact_clean_name_match,91,Iganga HOSPITAL,General Hospital,1,1,1,1,0.03177377,0.88661948,0.66121036,0.77391492,33.48449,0.61649,TRUE
HF1180,HF1180,92,Bugono HC IV,BUGONO HC IV,HC IV,Government,BUSOGA,33.45024,0.81084,TRUE,facilities_master_by_facility_id,0,0,0,0,0,1,not_ready_score_0,FALSE,FALSE,FALSE,FALSE,FALSE,129867,0,0,0.097159,0.344412,Bugono HC IV,BUGONO HC IV,HC IV,Government,MOH,Functional,NA,IGANGA,KIGULU,NABITENDE,exact_clean_name_match,92,Bugono HC IV,HC IV,0,0,0,0,0.03346273,0.95148975,0.6593938,0.80544178,33.45024,0.81084,TRUE
HF1207,HF1207,93,Budondo HC IV,BUDONDO HC IV,HC IV,Government,BUSOGA,33.16165,0.51725,TRUE,facilities_master_by_facility_id,0,0,0,0,0,1,not_ready_score_0,FALSE,FALSE,FALSE,FALSE,FALSE,128509,0,0,0.093443,0.229597,Budondo HC IV,BUDONDO HC IV,HC IV,Government,MOH,Functional,NA,JINJA,KAGOMA,BUDONDO,exact_clean_name_match,93,Budondo HC IV,HC IV,0,0,0,0,0.02145423,0.90443569,0.40504293,0.65473931,33.16165,0.51725,TRUE
HF1209,HF1209,94,Bugembe HC IV,BUGEMBE HC IV,HC IV,Government,BUSOGA,33.23708,0.46433,TRUE,facilities_master_by_facility_id,0,0,0,0,0,1,not_ready_score_0,FALSE,FALSE,FALSE,FALSE,FALSE,88179,0,0,0.094911,0.237416,Bugembe HC IV,BUGEMBE HC IV,HC IV,Government,MOH,Functional,NA,JINJA,BUTEMBE,BUGEMBE TOWN COUNCIL,exact_clean_name_match,94,Bugembe HC IV,HC IV,0,0,0,0,0.02253339,0.92302432,0.42236445,0.67269439,33.23708,0.46433,TRUE
HF1234,HF1234,95,Buwenge NGO Hospital,BUWENGE NGO HOSPITAL,General Hospital,Private Not For Profit,BUSOGA,33.17278,0.64781,TRUE,facilities_master_by_facility_id,0,0,0,1,1,0.75,weak_hub_score_1,FALSE,FALSE,FALSE,TRUE,TRUE,195011,78,3,0.09558,0.313785,Buwenge NGO Hospital,BUWENGE NGO HOSPITAL,General Hospital,Private Not For Profit,UMMB,Functional,NA,JINJA,KAGOMA,BUWENGE TOWN COUNCIL,exact_clean_name_match,95,Buwenge NGO Hospital,General Hospital,0,0,0,1,0.02999157,0.93149557,0.59154549,0.76152053,33.17278,0.64781,TRUE
HF1246,HF1246,96,Walukuba HC IV,WALUKUBA HC IV,HC IV,Government,BUSOGA,33.22508,0.43824,TRUE,facilities_master_by_facility_id,0,0,0,0,0,1,not_ready_score_0,FALSE,FALSE,FALSE,FALSE,FALSE,31392,0,0,0.094163,0.20683000000000001,Walukuba HC IV,WALUKUBA HC IV,HC IV,Government,MOH,Functional,NA,JINJA,JINJA MUNICIPALITY,MPUMUDDE DIVISION,exact_clean_name_match,96,Walukuba HC IV,HC IV,0,0,0,0,0.01947573,0.91355273,0.35460696,0.63407985,33.22508,0.43824,TRUE
HF1249,HF1249,97,Mpumudde HC IV,MPUMUDDE HC IV,HC IV,Government,BUSOGA,33.21235,0.45993,TRUE,facilities_master_by_facility_id,0,0,0,0,0,1,not_ready_score_0,FALSE,FALSE,FALSE,FALSE,FALSE,145831,0,0,0.092855,0.193894,Mpumudde HC IV,MPUMUDDE HC IV,HC IV,Government,MOH,Functional,NA,JINJA,JINJA MUNICIPALITY,MPUMUDDE DIVISION,exact_clean_name_match,97,Mpumudde HC IV,HC IV,0,0,0,0,0.01800403,0.89699011,0.3259497,0.6114699,33.21235,0.45993,TRUE
HF1250,HF1250,98,Kakira Worker's HOSPITAL,KAKIRA WORKER S HOSPITAL,General Hospital,Private For Profit,BUSOGA,33.29428,0.50921,TRUE,facilities_master_by_facility_id,0,0,0,1,1,0.75,weak_hub_score_1,FALSE,FALSE,FALSE,TRUE,TRUE,206568,54,0,0.094793,0.289294,Kakira Worker's HOSPITAL,KAKIRA WORKER S HOSPITAL,General Hospital,Private For Profit,NA,Functional,NA,JINJA,BUTEMBE,KAKIRA TOWN COUNCIL,exact_clean_name_match,98,Kakira Worker's HOSPITAL,General Hospital,0,0,0,1,0.02742305,0.92153014,0.53729032,0.72941023,33.29428,0.50921,TRUE
HF1269,HF1269,99,Kaberamaido HC IV,KABERAMAIDO HC IV,HC IV,Government,TESO,33.16359,1.77863,TRUE,facilities_master_by_facility_id,0,0,0,0,0,1,not_ready_score_0,FALSE,FALSE,FALSE,FALSE,FALSE,91502,0,0,0.079756,0.255527,Kaberamaido HC IV,KABERAMAIDO HC IV,HC IV,Government,MOH,Functional,NA,KABERAMAIDO,KABERAMAIDO,KABERAMAIDO TOWN COUNCIL,exact_clean_name_match,99,Kaberamaido HC IV,HC IV,0,0,0,0,0.02037981,0.7311233,0.46248593,0.59680462,33.16359,1.77863,TRUE
HF1276,HF1276,100,Lwala HOSPITAL,LWALA HOSPITAL,General Hospital,Private Not For Profit,TESO,33.27758,1.86232,TRUE,facilities_master_by_facility_id,0,0,1,1,2,0.5,partial_hub_score_2,TRUE,FALSE,FALSE,TRUE,TRUE,119681,864,11,0.073597,0.302355,Lwala HOSPITAL,LWALA HOSPITAL,General Hospital,Private Not For Profit,UCMB,Functional,NA,KABERAMAIDO,KALAKI,OTUBOI,exact_clean_name_match,100,Lwala HOSPITAL,General Hospital,0,0,1,1,0.02225242,0.65313462,0.56622449,0.60967956,33.27758,1.86232,TRUE
HF1281,HF1281,101,Bumanya HC IV,BUMANYA HC IV,HC IV,Government,BUSOGA,33.49555,1.00204,TRUE,facilities_master_by_facility_id,1,0,0,0,1,0.75,weak_hub_score_1,FALSE,FALSE,FALSE,TRUE,FALSE,245575,0,0,0.09818,0.311274,Bumanya HC IV,BUMANYA HC IV,HC IV,Government,MOH,Functional,NA,KALIRO,BULAMOGI,BUMANYA,exact_clean_name_match,101,Bumanya HC IV,HC IV,1,0,0,0,0.03056088,0.96441822,0.58598284,0.77520053,33.49555,1.00204,TRUE
HF1312,HF1312,102,Kamuli HOSPITAL,KAMULI HOSPITAL,General Hospital,Government,BUSOGA,33.12034,0.95039,TRUE,facilities_master_by_facility_id,1,1,1,1,4,0,full_hub_score_4,TRUE,TRUE,TRUE,TRUE,TRUE,196516,17,0,0.098284,0.362318,Kamuli HOSPITAL,KAMULI HOSPITAL,General Hospital,Government,MOH,Functional,NA,KAMULI,KAMULI MUNICIPALITY,SOUTHERN DIVISION,exact_clean_name_match,102,Kamuli HOSPITAL,General Hospital,1,1,1,1,0.03561006,0.96573512,0.69906115,0.83239814,33.12034,0.95039,TRUE
HF1313,HF1313,103,Kamuli Mission Hospital,KAMULI MISSION HOSPITAL,General Hospital,Private Not For Profit,BUSOGA,33.12793,0.93169,TRUE,facilities_master_by_facility_id,1,0,1,1,3,0.25,strong_hub_score_3,TRUE,TRUE,FALSE,TRUE,TRUE,160864,190,4,0.097706,0.355988,Kamuli Mission Hospital,KAMULI MISSION HOSPITAL,General Hospital,Private Not For Profit,UCMB,Functional,NA,KAMULI,KAMULI MUNICIPALITY,NORTHERN DIVISION,exact_clean_name_match,103,Kamuli Mission Hospital,General Hospital,1,0,1,1,0.03478216,0.95841617,0.68503824,0.8217272,33.12793,0.93169,TRUE
HF1322,HF1322,104,Nankandulo HC IV,NANKANDULO HC IV,HC IV,Government,BUSOGA,33.07762,0.67919,TRUE,facilities_master_by_facility_id,0,0,0,0,0,1,not_ready_score_0,FALSE,FALSE,FALSE,FALSE,FALSE,176006,0,0,0.093792,0.301473,Nankandulo HC IV,NANKANDULO HC IV,HC IV,Government,MOH,Functional,NA,KAMULI,BUZAAYA,KISOZI,exact_clean_name_match,104,Nankandulo HC IV,HC IV,0,0,0,0,0.02827576,0.90885493,0.56427059,0.73656276,33.07762,0.67919,TRUE
HF1340,HF1340,105,Namwendwa HC IV,NAMWENDWA HC IV,HC IV,Government,BUSOGA,33.24814,0.92059,TRUE,facilities_master_by_facility_id,0,0,1,0,1,0.75,weak_hub_score_1,FALSE,FALSE,FALSE,FALSE,FALSE,177898,0,0,0.099858,0.367373,Namwendwa HC IV,NAMWENDWA HC IV,HC IV,Government,MOH,Functional,NA,KAMULI,BUGABULA,NAMWENDWA,exact_clean_name_match,105,Namwendwa HC IV,HC IV,0,0,1,0,0.03668513,0.98566599,0.71025955,0.84796277,33.24814,0.92059,TRUE
HF1354,HF1354,106,Kapchorwa HOSPITAL,KAPCHORWA HOSPITAL,General Hospital,Government,BUGISU,34.44148,1.40541,TRUE,facilities_master_by_facility_id,0,0,0,1,1,0.75,weak_hub_score_1,FALSE,FALSE,FALSE,TRUE,TRUE,182969,39,1,0.044276,0.179893,Kapchorwa HOSPITAL,KAPCHORWA HOSPITAL,General Hospital,Government,MOH,Functional,NA,KAPCHORWA,KAPCHORWA MUNICIPALITY,CENTRAL DIVISION,exact_clean_name_match,106,Kapchorwa HOSPITAL,General Hospital,0,0,0,1,0.00796494,0.28185582,0.29493314,0.28839448,34.44148,1.40541,TRUE
HF1375,HF1375,107,Katakwi General Hospital,KATAKWI GENERAL HOSPITAL,General Hospital,Government,TESO,33.96227,1.92008,TRUE,facilities_master_by_facility_id,1,1,0,1,3,0.25,strong_hub_score_3,TRUE,TRUE,FALSE,TRUE,TRUE,111728,957,1,0.061564,0.483768,Katakwi General Hospital,KATAKWI GENERAL HOSPITAL,General Hospital,Government,MOH,Functional,NA,KATAKWI,USUK,KATAKWI TOWN COUNCIL,exact_clean_name_match,107,Katakwi General Hospital,General Hospital,1,1,0,1,0.02978269,0.50076608,0.96811061,0.73443835,33.96227,1.92008,TRUE
HF1390,HF1390,108,Toroma HC IV,TOROMA HC IV,HC IV,Government,TESO,33.96714,1.75491,TRUE,facilities_master_by_facility_id,1,0,0,0,1,0.75,weak_hub_score_1,FALSE,FALSE,FALSE,TRUE,FALSE,45096,0,0,0.066162,0.448825,Toroma HC IV,TOROMA HC IV,HC IV,Government,MOH,Functional,NA,KATAKWI,TOROMA,TOROMA,exact_clean_name_match,108,Toroma HC IV,HC IV,1,0,0,0,0.02969516,0.55898852,0.89070101,0.72484477,33.96714,1.75491,TRUE
HF1405,HF1405,109,Kibuku HC IV,KIBUKU HC IV,HC IV,Government,BUKEDI,33.79967,1.05046,TRUE,facilities_master_by_facility_id,1,0,0,0,1,0.75,weak_hub_score_1,FALSE,FALSE,FALSE,TRUE,FALSE,173371,0,0,0.094018,0.244986,Kibuku HC IV,KIBUKU HC IV,HC IV,Government,MOH,Functional,NA,KIBUKU,KIBUKU,KIBUKU TOWN COUNCIL,exact_clean_name_match,109,Kibuku HC IV,HC IV,1,0,0,0,0.02303309,0.91171666,0.43913435,0.6754255,33.79967,1.05046,TRUE
HF1408,HF1408,110,Atutur HOSPITAL,ATUTUR HOSPITAL,General Hospital,Government,TESO,33.990778,1.412704,TRUE,facilities_master_by_facility_id,1,1,1,0,3,0.25,strong_hub_score_3,TRUE,TRUE,FALSE,TRUE,FALSE,79058,4387,21,0.078373,0.393554,Atutur HOSPITAL,ATUTUR HOSPITAL,General Hospital,Government,MOH,Functional,NA,KUMI,KUMI,ATUTUR,exact_clean_name_match,110,Atutur HOSPITAL,General Hospital,1,1,1,0,0.03084401,0.71361098,0.76825859,0.74093478,33.990778,1.412704,TRUE
HF1419,HF1419,111,Kumi HC IV,KUMI HC IV,HC IV,Government,TESO,33.97501,1.530615,TRUE,facilities_master_by_facility_id,0,0,0,0,0,1,not_ready_score_0,FALSE,FALSE,FALSE,FALSE,FALSE,139796,0,0,0.080432,0.399893,Kumi HC IV,KUMI HC IV,HC IV,Government,MOH,Functional,NA,KUMI,KUMI,ONGINO,exact_clean_name_match,111,Kumi HC IV,HC IV,0,0,0,0,0.03216419,0.73968318,0.78230144,0.76099231,33.97501,1.530615,TRUE
HF1421,HF1421,112,Kadami HOSPITAL,KADAMI HOSPITAL,General Hospital,Private Not For Profit,TESO,33.80859,1.34172,TRUE,facilities_master_by_facility_id,1,1,1,1,4,0,full_hub_score_4,TRUE,TRUE,TRUE,TRUE,TRUE,94576,155,4,0.087782,0.33037,Kadami HOSPITAL,KADAMI HOSPITAL,General Hospital,Private Not For Profit,Local Government,Functional,NA,KUMI,KUMI,MUKONGORO,exact_clean_name_match,112,Kadami HOSPITAL,General Hospital,1,1,1,1,0.029000540000000002,0.83275297,0.62828641,0.73051969,33.80859,1.34172,TRUE
HF1431,HF1431,113,Kumi NGO HOSPITAL,KUMI NGO HOSPITAL,General Hospital,Private Not For Profit,TESO,34.00482,1.55895,TRUE,facilities_master_by_facility_id,1,0,1,1,3,0.25,strong_hub_score_3,TRUE,TRUE,FALSE,TRUE,TRUE,21091,92,10,0.074611,0.419525,Kumi NGO HOSPITAL,KUMI NGO HOSPITAL,General Hospital,Private Not For Profit,NA,Functional,NA,KUMI,KUMI,ONGINO,exact_clean_name_match,113,Kumi NGO HOSPITAL,General Hospital,1,0,1,1,0.03130118,0.66597445,0.82579242,0.74588343,34.00482,1.55895,TRUE
HF1438,HF1438,114,Kaproron HC IV,KAPRORON HC IV,HC IV,Government,BUGISU,34.61584,1.42451,TRUE,facilities_master_by_facility_id,0,0,0,0,0,1,not_ready_score_0,FALSE,FALSE,FALSE,FALSE,FALSE,13961,0,0,0.040337,0.11597,Kaproron HC IV,KAPRORON HC IV,HC IV,Government,MOH,Functional,NA,KWEEN,KWEEN,KAPRORON,exact_clean_name_match,114,Kaproron HC IV,HC IV,0,0,0,0,0.00467788,0.23197802,0.15332385,0.19265094,34.61584,1.42451,TRUE
HF1475,HF1475,115,Kiyunga HC IV,KIYUNGA HC IV,HC IV,Government,BUSOGA,33.33111,0.76647,TRUE,facilities_master_by_facility_id,1,0,0,0,1,0.75,weak_hub_score_1,FALSE,FALSE,FALSE,TRUE,FALSE,220722,0,0,0.097935,0.367215,Kiyunga HC IV,KIYUNGA HC IV,HC IV,Government,MOH,Functional,NA,LUUKA,LUUKA,LUUKA TOWN COUNCIL,exact_clean_name_match,115,Kiyunga HC IV,HC IV,1,0,0,0,0.0359632,0.96131589,0.70990953,0.83561271,33.33111,0.76647,TRUE
HF1483,HF1483,116,Bugobero HC IV,BUGOBERO HC IV,HC IV,Government,BUGISU,34.25272,0.86533,TRUE,facilities_master_by_facility_id,1,1,0,0,2,0.5,partial_hub_score_2,TRUE,FALSE,FALSE,TRUE,FALSE,218236,0,0,0.080011,0.214444,Bugobero HC IV,BUGOBERO HC IV,HC IV,Government,MOH,Functional,NA,MANAFWA,BUBULO,BUGOBERO,exact_clean_name_match,116,Bugobero HC IV,HC IV,1,1,0,0,0.01715788,0.73435225,0.37147433,0.55291329,34.25272,0.86533,TRUE
HF1492,HF1492,117,Bubulo HC IV,BUBULO HC IV,HC IV,Government,BUGISU,34.28036,0.9567,TRUE,facilities_master_by_facility_id,0,0,0,0,0,1,not_ready_score_0,FALSE,FALSE,FALSE,FALSE,FALSE,168844,0,0,0.07311,0.214744,Bubulo HC IV,BUBULO HC IV,HC IV,Government,MOH,Functional,NA,MANAFWA,BUBULO,MANAFWA TOWN COUNCIL,exact_clean_name_match,117,Bubulo HC IV,HC IV,0,0,0,0,0.01569993,0.64696795,0.37213893,0.50955344,34.28036,0.9567,TRUE
HF1515,HF1515,118,Kigandalo HC IV,KIGANDALO HC IV,HC IV,Government,BUSOGA,33.62108,0.38962,TRUE,facilities_master_by_facility_id,1,0,1,0,2,0.5,partial_hub_score_2,TRUE,FALSE,FALSE,TRUE,FALSE,215196,0,0,0.095305,0.343323,Kigandalo HC IV,KIGANDALO HC IV,HC IV,Government,MOH,Functional,NA,MAYUGE,BUNYA,KIGANDALO,exact_clean_name_match,118,Kigandalo HC IV,HC IV,1,0,1,0,0.0327204,0.92801337,0.65698133,0.79249735,33.62108,0.38962,TRUE
HF1524,HF1524,119,Bufumbo HC IV,BUFUMBO HC IV,HC IV,Government,BUGISU,34.23246,1.10115,TRUE,facilities_master_by_facility_id,0,0,0,0,0,1,not_ready_score_0,FALSE,FALSE,FALSE,FALSE,FALSE,132774,0,0,0.068653,0.201564,Bufumbo HC IV,BUFUMBO HC IV,HC IV,Government,MOH,Functional,NA,MBALE,BUNGOKHO,BUKONDE,exact_clean_name_match,119,Bufumbo HC IV,HC IV,0,0,0,0,0.01383797,0.59053094,0.34294113,0.46673603,34.23246,1.10115,TRUE
HF1530,HF1530,120,Busiu HC IV,BUSIU HC IV,HC IV,Government,BUGISU,34.160205,0.921866,TRUE,facilities_master_by_facility_id,1,1,0,0,2,0.5,partial_hub_score_2,TRUE,FALSE,FALSE,TRUE,FALSE,241986,0,0,0.083648,0.220916,Busiu HC IV,BUSIU HC IV,HC IV,Government,MOH,Functional,NA,MBALE,BUNGOKHO,BUSIU TOWN COUNCIL,exact_clean_name_match,120,Busiu HC IV,HC IV,1,1,0,0,0.01847918,0.78040596,0.38581182,0.58310889,34.160205,0.921866,TRUE
HF1532,HF1532,121,Cure Children's Hospital,CURE CHILDREN S HOSPITAL,General Hospital,Private Not For Profit,BUGISU,34.171724,1.073644,TRUE,facilities_master_by_facility_id,0,0,0,1,1,0.75,weak_hub_score_1,FALSE,FALSE,FALSE,TRUE,TRUE,126686,5,72,0.075449,0.210671,Cure Children's Hospital,CURE CHILDREN S HOSPITAL,General Hospital,Private Not For Profit,NA,Functional,NA,MBALE,MBALE MUNICIPALITY,INDUSTRIAL DIVISON,exact_clean_name_match,121,Cure Children's Hospital,General Hospital,0,0,0,2,0.01589492,0.67658567,0.36311597,0.51985082,34.171724,1.073644,TRUE
HF1533,HF1533,122,Namatala HC IV,NAMATALA HC IV,HC IV,Government,BUGISU,34.16483,1.085432,TRUE,facilities_master_by_facility_id,0,0,0,0,0,1,not_ready_score_0,FALSE,FALSE,FALSE,FALSE,FALSE,297370,0,0,0.076949,0.238276,Namatala HC IV,NAMATALA HC IV,HC IV,Government,MOH,Functional,NA,MBALE,MBALE MUNICIPALITY,INDUSTRIAL DIVISON,exact_clean_name_match,122,Namatala HC IV,HC IV,0,0,0,0,0.0183351,0.6955795,0.42426961,0.55992456,34.16483,1.085432,TRUE
HF1547,HF1547,123,Buyinja HC IV,BUYINJA HC IV,HC IV,Government,BUSOGA,33.87629,0.3358,TRUE,facilities_master_by_facility_id,1,0,0,0,1,0.75,weak_hub_score_1,FALSE,FALSE,FALSE,TRUE,FALSE,390611,0,0,0.09854,0.406285,Buyinja HC IV,BUYINJA HC IV,HC IV,Government,MOH,Functional,NA,NAMAYINGO,BUKOOLI,NAMAYINGO TOWN COUNCIL,exact_clean_name_match,123,Buyinja  HC IV,HC IV,1,0,0,0,0.04003532,0.96897674,0.79646171,0.88271922,33.87629,0.3358,TRUE
HF1583,HF1583,124,Nsinze HC IV,NSINZE HC IV,HC IV,Government,BUSOGA,33.60926,0.81833,TRUE,facilities_master_by_facility_id,1,0,0,0,1,0.75,weak_hub_score_1,FALSE,FALSE,FALSE,TRUE,FALSE,275880,0,0,0.094906,0.268989,Nsinze HC IV,NSINZE HC IV,HC IV,Government,MOH,Functional,NA,NAMUTUMBA,BUSIKI,NSINZE,exact_clean_name_match,124,Nsinze HC IV,HC IV,1,0,0,0,0.02552867,0.92296101,0.49230844,0.70763473,33.60926,0.81833,TRUE
HF1591,HF1591,125,Ngora Ngo HOSPITAL,NGORA NGO HOSPITAL,General Hospital,Private Not For Profit,TESO,33.7934,1.47733,TRUE,facilities_master_by_facility_id,0,0,0,1,1,0.75,weak_hub_score_1,FALSE,FALSE,FALSE,TRUE,TRUE,100774,307,3,0.088829,0.367768,Ngora Ngo HOSPITAL,NGORA NGO HOSPITAL,General Hospital,Private Not For Profit,NA,Functional,NA,NGORA,NGORA,NGORA TOWN COUNCIL,exact_clean_name_match,125,Ngora Ngo HOSPITAL,General Hospital,0,0,0,1,0.03266846,0.84601066,0.71113459,0.77857263,33.7934,1.47733,TRUE
HF1595,HF1595,126,Ngora Gvt HC IV,NGORA GVT HC IV,HC IV,Government,TESO,33.80532,1.49346,TRUE,facilities_master_by_facility_id,0,0,0,0,0,1,not_ready_score_0,FALSE,FALSE,FALSE,FALSE,FALSE,51233,0,0,0.086268,0.379005,Ngora Gvt HC IV,NGORA GVT HC IV,HC IV,Government,MOH,Functional,NA,NGORA,NGORA,NGORA,exact_clean_name_match,126,Ngora Gvt HC IV,HC IV,0,0,0,0,0.032696,0.81358186,0.73602804,0.77480495,33.80532,1.49346,TRUE
HF1600,HF1600,127,Butebo HC IV,BUTEBO HC IV,HC IV,Government,BUKEDI,33.918499,1.201598,TRUE,facilities_master_by_facility_id,1,0,0,0,1,0.75,weak_hub_score_1,FALSE,FALSE,FALSE,TRUE,FALSE,256457,0,0,0.089097,0.276807,Butebo HC IV,BUTEBO HC IV,HC IV,Government,MOH,Functional,NA,PALLISA,BUTEBO,BUTEBO,exact_clean_name_match,127,Butebo HC IV,HC IV,1,0,0,0,0.02466267,0.84940423,0.50962774,0.67951598,33.918499,1.201598,TRUE
HF1609,HF1609,128,Kanginima HOSPITAL,KANGINIMA HOSPITAL,General Hospital,Government,BUKEDI,33.99635,1.19585,TRUE,facilities_master_by_facility_id,1,1,1,1,4,0,full_hub_score_4,TRUE,TRUE,TRUE,TRUE,TRUE,69718,1041,3,0.0819,0.270154,Kanginima HOSPITAL,KANGINIMA HOSPITAL,General Hospital,Government,NA,Functional,NA,PALLISA,BUTEBO,KANGINIMA,exact_clean_name_match,128,Kanginima HOSPITAL,General Hospital,1,1,1,1,0.02212561,0.75827181,0.49488928,0.62658054,33.99635,1.19585,TRUE
HF1617,HF1617,129,Pallisa HOSPITAL,PALLISA HOSPITAL,General Hospital,Government,BUKEDI,33.711171,1.178446,TRUE,facilities_master_by_facility_id,0,0,0,1,1,0.75,weak_hub_score_1,FALSE,FALSE,FALSE,TRUE,TRUE,319861,579,11,0.094309,0.269926,Pallisa HOSPITAL,PALLISA HOSPITAL,General Hospital,Government,MOH,Functional,NA,PALLISA,PALLISA,PALLISA TOWN COUNCIL,exact_clean_name_match,129,Pallisa HOSPITAL,General Hospital,0,0,0,1,0.02545645,0.91540147,0.49438419,0.70489283,33.711171,1.178446,TRUE
HF1629,HF1629,130,Apapai HC IV,APAPAI HC IV,HC IV,Government,TESO,33.29067,1.52954,TRUE,facilities_master_by_facility_id,0,0,0,0,0,1,not_ready_score_0,FALSE,FALSE,FALSE,FALSE,FALSE,51802,0,0,0.086175,0.284918,Apapai HC IV,APAPAI HC IV,HC IV,Government,MOH,Functional,NA,SERERE,KASILO,BUGONDO,exact_clean_name_match,130,Apapai HC IV,HC IV,0,0,0,0,0.02455281,0.81240424,0.52759612,0.67000018,33.29067,1.52954,TRUE
HF1643,HF1643,131,Serere HC IV,SERERE HC IV,HC IV,Government,TESO,33.45971,1.52179,TRUE,facilities_master_by_facility_id,1,1,0,0,2,0.5,partial_hub_score_2,TRUE,FALSE,FALSE,TRUE,FALSE,269660,0,0,0.089136,0.315287,Serere HC IV,SERERE HC IV,HC IV,Government,MOH,Functional,NA,SERERE,SERERE,SERERE TOWN COUNCIL,exact_clean_name_match,131,Serere HC IV,HC IV,1,1,0,0,0.02810342,0.84989807,0.59487289,0.72238548,33.45971,1.52179,TRUE
HF1647,HF1647,132,Budadiri HC IV,BUDADIRI HC IV,HC IV,Government,BUGISU,34.32841,1.17328,TRUE,facilities_master_by_facility_id,1,0,0,0,1,0.75,weak_hub_score_1,FALSE,FALSE,FALSE,TRUE,FALSE,200652,0,0,0.059068,0.191872,Budadiri HC IV,BUDADIRI HC IV,HC IV,Government,MOH,Functional,NA,SIRONKO,BUDADIRI,BUDADIRI TOWN COUNCIL,exact_clean_name_match,132,Budadiri HC IV,HC IV,1,0,0,0,0.0113335,0.46916035,0.32147035,0.39531535,34.32841,1.17328,TRUE
HF1667,HF1667,133,Buwasa HC IV,BUWASA HC IV,HC IV,Government,BUGISU,34.27368,1.14055,TRUE,facilities_master_by_facility_id,0,0,0,0,0,1,not_ready_score_0,FALSE,FALSE,FALSE,FALSE,FALSE,144065,0,0,0.066159,0.220655,Buwasa HC IV,BUWASA HC IV,HC IV,Government,MOH,Functional,NA,SIRONKO,BUDADIRI,BUWASA,exact_clean_name_match,133,Buwasa HC IV,HC IV,0,0,0,0,0.01459831,0.55895053,0.38523363,0.47209208,34.27368,1.14055,TRUE
HF1688,HF1688,134,ATIRIR HC IV,ATIRIR HC IV,HC IV,Government,TESO,33.45841,1.90514,TRUE,facilities_master_by_facility_id,0,0,0,0,0,1,not_ready_score_0,FALSE,FALSE,FALSE,FALSE,FALSE,52329,0,0,0.077902,0.337641,ATIRIR HC IV,ATIRIR HC IV,HC IV,Government,MOH,Functional,NA,SOROTI,SOROTI,KATINE,exact_clean_name_match,134,ATIRIR HC IV,HC IV,0,0,0,0,0.02630291,0.70764692,0.64439394,0.67602043,33.45841,1.90514,TRUE
HF1697,HF1697,135,Princes Diana HC IV,PRINCES DIANA HC IV,HC IV,Government,TESO,33.62114,1.74807,TRUE,facilities_master_by_facility_id,0,0,0,1,1,0.75,weak_hub_score_1,FALSE,FALSE,FALSE,TRUE,TRUE,89809,67,0,0.080813,0.379056,Princes Diana HC IV,PRINCES DIANA HC IV,HC IV,Government,MOH,Functional,NA,SOROTI,SOROTI MUNICIPALITY,EASTERN DIVISION,exact_clean_name_match,135,Princes Diana HC IV,HC IV,0,0,0,1,0.03063265,0.74450762,0.73614102,0.74032432,33.62114,1.74807,TRUE
HF1698,HF1698,136,Soroti REGIONAL REF HOSPITAL,SOROTI REGIONAL REF HOSPITAL,RR Hospital,Government,TESO,33.61395,1.71849,TRUE,facilities_master_by_facility_id,0,0,0,1,1,0.75,weak_hub_score_1,FALSE,FALSE,FALSE,TRUE,TRUE,245592,1167,61,0.081875,0.359608,Soroti REGIONAL REF HOSPITAL,SOROTI REGIONAL REF HOSPITAL,RR Hospital,Government,MOH,Functional,NA,SOROTI,SOROTI MUNICIPALITY,EASTERN DIVISION,exact_clean_name_match,136,Soroti REGIONAL REF HOSPITAL,RR Hospital,0,0,0,1,0.0294429,0.75795525,0.69305766,0.72550645,33.61395,1.71849,TRUE
HF1722,HF1722,137,Mukuju HC IV,MUKUJU HC IV,HC IV,Government,BUKEDI,34.190183,0.747797,TRUE,facilities_master_by_facility_id,0,0,0,0,0,1,not_ready_score_0,FALSE,FALSE,FALSE,FALSE,FALSE,135857,0,0,0.087039,0.207599,Mukuju HC IV,MUKUJU HC IV,HC IV,Government,MOH,Functional,NA,TORORO,TORORO,MUKUJU,exact_clean_name_match,137,Mukuju HC IV,HC IV,0,0,0,0,0.01806921,0.82334469,0.35631053,0.58982761,34.190183,0.747797,TRUE
HF1726,HF1726,138,Mulanda HC IV,MULANDA HC IV,HC IV,Government,BUKEDI,33.95195,0.65516,TRUE,facilities_master_by_facility_id,0,0,0,0,0,1,not_ready_score_0,FALSE,FALSE,FALSE,FALSE,FALSE,42992,0,0,0.09291,0.222301,Mulanda HC IV,MULANDA HC IV,HC IV,Government,MOH,Functional,NA,TORORO,WEST BUDAMA,MULANDA,exact_clean_name_match,138,Mulanda HC IV,HC IV,0,0,0,0,0.02065399,0.89768655,0.38888003,0.64328329,33.95195,0.65516,TRUE
HF1734,HF1734,139,Nagongera HC IV,NAGONGERA HC IV,HC IV,Government,BUKEDI,34.024967,0.772335,TRUE,facilities_master_by_facility_id,0,0,0,0,0,1,not_ready_score_0,FALSE,FALSE,FALSE,FALSE,FALSE,133014,0,0,0.090703,0.207027,Nagongera HC IV,NAGONGERA HC IV,HC IV,Government,MOH,Functional,NA,TORORO,WEST BUDAMA,NAGONGERA TOWN COUNCIL,exact_clean_name_match,139,Nagongera HC IV,HC IV,0,0,0,0,0.01877797,0.86974029,0.35504338,0.61239183,34.024967,0.772335,TRUE
HF1747,HF1747,140,Rubongi Military HOSPITAL,RUBONGI MILITARY HOSPITAL,General Hospital,Government,BUKEDI,34.037279,0.65806,TRUE,facilities_master_by_facility_id,0,0,0,1,1,0.75,weak_hub_score_1,FALSE,FALSE,FALSE,TRUE,TRUE,93459,57,2,0.09289,0.249227,Rubongi Military HOSPITAL,RUBONGI MILITARY HOSPITAL,General Hospital,Government,Army,Functional,NA,TORORO,WEST BUDAMA,MULANDA,exact_clean_name_match,140,Rubongi Military HOSPITAL,General Hospital,0,0,0,1,0.0231507,0.8974333,0.44852948,0.67298139,34.037279,0.65806,TRUE
HF1751,HF1751,141,Benedictine Eye HOSPITAL,BENEDICTINE EYE HOSPITAL,General Hospital,Government,BUKEDI,34.19622,0.70331,TRUE,facilities_master_by_facility_id,0,0,0,0,0,1,not_ready_score_0,FALSE,FALSE,FALSE,FALSE,FALSE,80273,0,0,0.086868,0.19448,Benedictine Eye HOSPITAL,BENEDICTINE EYE HOSPITAL,General Hospital,Government,MOH,Functional,NA,TORORO,TORORO MUNICIPALITY,EASTERN DIVISION,exact_clean_name_match,141,Benedictine Eye HOSPITAL,General Hospital,0,0,0,0,0.01689409,0.82117939,0.32724788,0.57421364,34.19622,0.70331,TRUE
HF1752,HF1752,142,Tororo General HOSPITAL,TORORO GENERAL HOSPITAL,General Hospital,Government,BUKEDI,34.187079,0.697967,TRUE,facilities_master_by_facility_id,1,1,1,1,4,0,full_hub_score_4,TRUE,TRUE,TRUE,TRUE,TRUE,42651,2472,25,0.090214,0.200315,Tororo General HOSPITAL,TORORO GENERAL HOSPITAL,General Hospital,Government,MOH,Functional,NA,TORORO,TORORO MUNICIPALITY,EASTERN DIVISION,exact_clean_name_match,142,Tororo General HOSPITAL,General Hospital,1,1,1,2,0.01807122,0.8635483,0.34017421,0.60186125,34.187079,0.697967,TRUE
HF1754,HF1754,143,St. Anthony'S Tororo HOSPITAL,SAINT ANTHONY S TORORO HOSPITAL,General Hospital,Private Not For Profit,BUKEDI,34.179151,0.686363,TRUE,facilities_master_by_facility_id,0,0,0,1,1,0.75,weak_hub_score_1,FALSE,FALSE,FALSE,TRUE,TRUE,73373,261,0,0.091539,0.236424,St. Anthony'S Tororo HOSPITAL,SAINT ANTHONY S TORORO HOSPITAL,General Hospital,Private Not For Profit,UCMB,Functional,NA,TORORO,TORORO MUNICIPALITY,WESTERN DIVISION,exact_clean_name_match,143,St. Anthony'S Tororo HOSPITAL,General Hospital,0,0,0,1,0.02164202,0.88032619,0.42016686,0.65024653,34.179151,0.686363,TRUE
HF1769,HF1769,144,Abim HOSPITAL,ABIM HOSPITAL,General Hospital,Government,KARAMOJA,33.66236,2.67686,TRUE,facilities_master_by_facility_id,0,0,1,1,2,0.5,partial_hub_score_2,TRUE,FALSE,FALSE,TRUE,TRUE,42977,556,5,0.084148,0.472325,Abim HOSPITAL,ABIM HOSPITAL,General Hospital,Government,MOH,Functional,NA,ABIM,LABWOR,ABIM TOWN COUNCIL,exact_clean_name_match,144,Abim HOSPITAL,General Hospital,0,0,1,1,0.0397452,0.78673724,0.94276081,0.86474903,33.66236,2.67686,TRUE
HF1785,HF1785,145,Adjumani HOSPITAL,ADJUMANI HOSPITAL,General Hospital,Government,WEST NILE,31.791966,3.377464,TRUE,facilities_master_by_facility_id,0,0,0,1,1,0.75,weak_hub_score_1,FALSE,FALSE,FALSE,TRUE,TRUE,184607,328,11,0.058091,0.224472,Adjumani HOSPITAL,ADJUMANI HOSPITAL,General Hospital,Government,MOH,Functional,NA,ADJUMANI,EAST MOYO,ADJUMANI TOWN COUNCIL,exact_clean_name_match,145,Adjumani   HOSPITAL,General Hospital,0,0,0,1,0.0130398,0.45678903,0.39368947,0.42523925,31.791966,3.377464,TRUE
HF1805,HF1805,146,Mungula HC IV,MUNGULA HC IV,HC IV,Government,WEST NILE,31.793447,3.192876,TRUE,facilities_master_by_facility_id,0,0,0,0,0,1,not_ready_score_0,FALSE,FALSE,FALSE,FALSE,FALSE,56104,0,0,0.063848,0.326458,Mungula HC IV,MUNGULA HC IV,HC IV,Government,MOH,Functional,NA,ADJUMANI,EAST MOYO,ITIRIKWA,exact_clean_name_match,146,Mungula HC IV,HC IV,0,0,0,0,0.02084369,0.52968736,0.61962012,0.57465374,31.793447,3.192876,TRUE
HF1831,HF1831,147,Kalongo Ambrosoli Memorial HOSPITAL,KALONGO AMBROSOLI MEMORIAL HOSPITAL,General Hospital,Private Not For Profit,ACHOLI,33.43579,3.02789,TRUE,facilities_master_by_facility_id,1,1,1,1,4,0,full_hub_score_4,TRUE,TRUE,TRUE,TRUE,TRUE,33544,1408,17,0.078423,0.440943,Kalongo Ambrosoli Memorial HOSPITAL,KALONGO AMBROSOLI MEMORIAL HOSPITAL,General Hospital,Private Not For Profit,UCMB,Functional,NA,AGAGO,AGAGO,LAPONO,exact_clean_name_match,147,Kalongo Ambrosoli Memorial HOSPITAL,General Hospital,1,1,1,1,0.03458007,0.71424411,0.87323994,0.79374203,33.43579,3.02789,TRUE
HF1856,HF1856,148,Patongo HC III,PATONGO HC III,HC IV,Government,ACHOLI,33.303782,2.778143,TRUE,facilities_master_by_facility_id,0,0,0,0,0,1,not_ready_score_0,FALSE,FALSE,FALSE,FALSE,FALSE,76697,0,0,0.094714,0.438327,Patongo HC III,PATONGO HC III,HC IV,Government,MOH,Functional,NA,AGAGO,AGAGO,PATONGO TOWN COUNCIL,exact_clean_name_match,148,Patongo HC III,HC IV,0,0,0,0,0.0415157,0.9205298,0.86744468,0.89398724,33.303782,2.778143,TRUE
HF1868,HF1868,149,Alebtong HC IV,ALEBTONG HC IV,HC IV,Government,LANGO,33.23659,2.26365,TRUE,facilities_master_by_facility_id,1,1,0,0,2,0.5,partial_hub_score_2,TRUE,FALSE,FALSE,TRUE,FALSE,124673,0,0,0.09574,0.364924,Alebtong HC IV,ALEBTONG HC IV,HC IV,Government,MOH,Functional,NA,ALEBTONG,MOROTO,ALEBTONG TOWN COUNCIL,exact_clean_name_match,149,Alebtong HC IV,HC IV,1,1,0,0,0.03493782,0.93352158,0.70483425,0.81917792,33.23659,2.26365,TRUE
HF1882,HF1882,150,Amolatar HC IV,AMOLATAR HC IV,HC IV,Government,LANGO,32.842983,1.640539,TRUE,facilities_master_by_facility_id,1,1,0,0,2,0.5,partial_hub_score_2,TRUE,FALSE,FALSE,TRUE,FALSE,141470,0,0,0.085375,0.272265,Amolatar HC IV,AMOLATAR HC IV,HC IV,Government,MOH,Functional,NA,AMOLATAR,KIOGA,AMOLATAR TOWN COUNCIL,exact_clean_name_match,150,Amolatar HC IV,HC IV,1,1,0,0,0.02324462,0.80227419,0.4995658,0.65091999,32.842983,1.640539,TRUE
HF1903,HF1903,151,Atiak HC IV,ATIAK HC IV,HC IV,Government,ACHOLI,32.122702,3.262006,TRUE,facilities_master_by_facility_id,1,0,0,0,1,0.75,weak_hub_score_1,FALSE,FALSE,FALSE,TRUE,FALSE,40186,0,0,0.06964,0.358584,Atiak HC IV,ATIAK HC IV,HC IV,Government,MOH,Functional,NA,AMURU,KILAK,ATTIAK,exact_clean_name_match,151,Atiak HC IV,HC IV,1,0,0,0,0.02497179,0.60302888,0.69078918,0.64690903,32.122702,3.262006,TRUE
HF1927,HF1927,152,Aduku HC IV,ADUKU HC IV,HC IV,Government,LANGO,32.71821,1.99544,TRUE,facilities_master_by_facility_id,1,0,0,0,1,0.75,weak_hub_score_1,FALSE,FALSE,FALSE,TRUE,FALSE,80505,0,0,0.085012,0.423106,Aduku HC IV,ADUKU HC IV,HC IV,Government,MOH,Functional,NA,APAC,KWANIA,ADUKU TOWN COUNCIL,exact_clean_name_match,152,Aduku HC IV,HC IV,1,0,0,0,0.03596909,0.79767769,0.83372544,0.81570157,32.71821,1.99544,TRUE
HF1934,HF1934,153,Apac HOSPITAL,APAC HOSPITAL,General Hospital,Government,LANGO,32.533801,1.981577,TRUE,facilities_master_by_facility_id,1,1,1,1,4,0,full_hub_score_4,TRUE,TRUE,TRUE,TRUE,TRUE,116013,737,12,0.087798,0.430962,Apac HOSPITAL,APAC HOSPITAL,General Hospital,Government,MOH,Functional,NA,APAC,APAC MUNICIPALITY,APAC TOWN COUNCIL,exact_clean_name_match,153,Apac HOSPITAL,General Hospital,1,1,1,1,0.0378376,0.83295557,0.85112892,0.84204225,32.533801,1.981577,TRUE
HF1965,HF1965,154,Arua REGIONAL REF HOSPITAL,ARUA REGIONAL REF HOSPITAL,RR Hospital,Government,WEST NILE,30.90576,3.01991,TRUE,facilities_master_by_facility_id,0,0,0,1,1,0.75,weak_hub_score_1,FALSE,FALSE,FALSE,TRUE,TRUE,271111,802,16,0.053463,0.224256,Arua REGIONAL REF HOSPITAL,ARUA REGIONAL REF HOSPITAL,RR Hospital,Government,MOH,Functional,NA,ARUA,ARUA MUNICIPALITY,RIVER OLI DIVISION,exact_clean_name_match,154,Arua REGIONAL REF HOSPITAL,RR Hospital,0,0,0,1,0.0119894,0.39818672,0.39321096,0.39569884,30.90576,3.01991,TRUE
HF1970,HF1970,155,Oriajini HOSPITAL,ORIAJINI HOSPITAL,General Hospital,Private Not For Profit,WEST NILE,30.96805,3.17313,TRUE,facilities_master_by_facility_id,0,0,0,1,1,0.75,weak_hub_score_1,FALSE,FALSE,FALSE,TRUE,TRUE,275970,556,6,0.050998,0.225342,Oriajini HOSPITAL,ORIAJINI HOSPITAL,General Hospital,Private Not For Profit,UMMB,Functional,NA,MARACHA,MARACHA,KIJOMORO,exact_clean_name_match,155,Oriajini HOSPITAL,General Hospital,0,0,0,1,0.01149199,0.36697352,0.39561679,0.38129515,30.96805,3.17313,TRUE
HF1994,HF1994,156,Omugo HC IV,OMUGO HC IV,HC IV,Government,WEST NILE,31.11511,3.27945,TRUE,facilities_master_by_facility_id,0,0,0,0,0,1,not_ready_score_0,FALSE,FALSE,FALSE,FALSE,FALSE,269889,0,0,0.051078,0.210315,Omugo HC IV,OMUGO HC IV,HC IV,Government,MOH,Functional,NA,ARUA,TEREGO,OMUGO,exact_clean_name_match,156,Omugo HC IV,HC IV,0,0,0,0,0.01074247,0.36798653,0.36232732,0.36515692,31.11511,3.27945,TRUE
HF1999,HF1999,157,Rhino Camp HC IV,RHINO CAMP HC IV,HC IV,Government,WEST NILE,31.39745,2.9761,TRUE,facilities_master_by_facility_id,0,0,0,0,0,1,not_ready_score_0,FALSE,FALSE,FALSE,FALSE,FALSE,119694,0,0,0.056183,0.233866,Rhino Camp HC IV,RHINO CAMP HC IV,HC IV,Government,MOH,Functional,NA,ARUA,MADI OKOLLO,RHINO CAMP,exact_clean_name_match,157,Rhino Camp HC IV,HC IV,0,0,0,0,0.01313929,0.43262887,0.41450009,0.42356448,31.39745,2.9761,TRUE
HF2009,HF2009,158,Kuluva HOSPITAL,KULUVA HOSPITAL,General Hospital,Private Not For Profit,WEST NILE,30.93375,2.94981,TRUE,facilities_master_by_facility_id,0,0,0,1,1,0.75,weak_hub_score_1,FALSE,FALSE,FALSE,TRUE,TRUE,274398,50,0,0.057905,0.267178,Kuluva HOSPITAL,KULUVA HOSPITAL,General Hospital,Private Not For Profit,NA,Functional,NA,ARUA,VURRA,VURRA,exact_clean_name_match,158,Kuluva HOSPITAL,General Hospital,0,0,0,1,0.01547094,0.45443379,0.48829651,0.47136515,30.93375,2.94981,TRUE
HF2019,HF2019,159,Dokolo HC IV,DOKOLO HC IV,HC IV,Government,LANGO,33.17266,1.919833,TRUE,facilities_master_by_facility_id,1,1,0,0,2,0.5,partial_hub_score_2,TRUE,FALSE,FALSE,TRUE,FALSE,153861,0,0,0.083855,0.287299,Dokolo HC IV,DOKOLO HC IV,HC IV,Government,MOH,Functional,NA,DOKOLO,DOKOLO,DOKOLO TC,exact_clean_name_match,159,Dokolo HC IV,HC IV,1,1,0,0,0.02409146,0.78302711,0.53287078,0.65794895,33.17266,1.919833,TRUE
HF2027,HF2027,160,Awach HC IV,AWACH HC IV,HC IV,Government,ACHOLI,32.40077,2.97058,TRUE,facilities_master_by_facility_id,1,0,0,0,1,0.75,weak_hub_score_1,FALSE,FALSE,FALSE,TRUE,FALSE,74663,0,0,0.086281,0.418578,Awach HC IV,AWACH HC IV,HC IV,Government,MOH,Functional,NA,GULU,ASWA,AWACH,exact_clean_name_match,160,Awach HC IV,HC IV,1,0,0,0,0.03611533,0.81374647,0.82369452,0.81872049,32.40077,2.97058,TRUE
HF2028,HF2028,161,Gulu Military Hospital,GULU MILITARY HOSPITAL,General Hospital,Government,ACHOLI,32.28098536,2.779666686,TRUE,facilities_master_by_facility_id,0,0,0,1,1,0.75,weak_hub_score_1,FALSE,FALSE,FALSE,TRUE,TRUE,47199,39,0,0.088956,0.403548,Gulu Military Hospital,GULU MILITARY HOSPITAL,General Hospital,Government,MOH,Functional,NA,GULU,GULU MUNICIPALITY,BAR DEGE DIVISION,exact_clean_name_match,161,Gulu  Military Hospital,General Hospital,0,0,0,2,0.03589802,0.84761881,0.7903984,0.8190086,32.28098536,2.779666686,TRUE
HF2029,HF2029,162,St. Mary's Hospital Lacor,SAINT MARY S HOSPITAL LACOR,General Hospital,Private Not For Profit,ACHOLI,32.25254,2.76599,TRUE,facilities_master_by_facility_id,0,0,0,1,1,0.75,weak_hub_score_1,FALSE,FALSE,FALSE,TRUE,TRUE,175898,4585,74,0.088237,0.405944,St. Mary's Hospital Lacor,SAINT MARY S HOSPITAL LACOR,General Hospital,Private Not For Profit,UCMB,Functional,NA,GULU,GULU MUNICIPALITY,BAR DEGE DIVISION,exact_clean_name_match,162,St. Mary's Hospital Lacor,General Hospital,0,0,0,1,0.03581928,0.83851443,0.79570629,0.81711036,32.25254,2.76599,TRUE
HF2057,HF2057,163,Lalogi HC IV,LALOGI HC IV,HC IV,Government,ACHOLI,32.56665,2.63611,TRUE,facilities_master_by_facility_id,1,0,0,0,1,0.75,weak_hub_score_1,FALSE,FALSE,FALSE,TRUE,FALSE,60887,0,0,0.100989,0.438181,Lalogi HC IV,LALOGI HC IV,HC IV,Government,MOH,Functional,NA,OMORO,OMORO,OMORO TOWN COUNCIL,exact_clean_name_match,163,Lalogi HC IV,HC IV,1,0,0,0,0.04425146,0.99998734,0.86712125,0.93355429,32.56665,2.63611,TRUE
HF2067,HF2067,164,Gulu Regional Referal Hospital,GULU REGIONAL REFERAL HOSPITAL,RR Hospital,Government,ACHOLI,32.29853,2.78069,TRUE,facilities_master_by_facility_id,0,0,0,1,1,0.75,weak_hub_score_1,FALSE,FALSE,FALSE,TRUE,TRUE,214139,2371,11,0.09623,0.423448,Gulu Regional Referal Hospital,GULU REGIONAL REFERAL HOSPITAL,RR Hospital,Government,MOH,Functional,NA,GULU,GULU MUNICIPALITY,LAROO DIVISION,exact_clean_name_match,164,Gulu Regional Referal Hospital,RR Hospital,0,0,0,1,0.0407484,0.93972624,0.83448308,0.88710466,32.29853,2.78069,TRUE
HF2099,HF2099,165,Kaabong HOSPITAL,KAABONG HOSPITAL,General Hospital,Government,KARAMOJA,34.13121,3.51508,TRUE,facilities_master_by_facility_id,1,0,1,1,3,0.25,strong_hub_score_3,TRUE,TRUE,FALSE,TRUE,TRUE,45080,387,22,0.04234,0.366937,Kaabong HOSPITAL,KAABONG HOSPITAL,General Hospital,Government,MOH,Functional,NA,KAABONG,DODOTH,KAABONG TOWN COUNCIL,exact_clean_name_match,165,Kaabong HOSPITAL,General Hospital,1,0,1,1,0.01553611,0.25734112,0.70929367,0.48331739,34.13121,3.51508,TRUE
HF2108,HF2108,166,Karenga HC IV,KARENGA HC IV,HC IV,Government,KARAMOJA,33.69555,3.56899,TRUE,facilities_master_by_facility_id,0,0,0,0,0,1,not_ready_score_0,FALSE,FALSE,FALSE,FALSE,FALSE,17189,0,0,0.048256,0.400149,Karenga HC IV,KARENGA HC IV,HC IV,Government,MOH,Functional,NA,KAABONG,DODOTH,NAPORE KARENGA,exact_clean_name_match,166,Karenga HC IV,HC IV,0,0,0,0,0.01930959,0.3322528,0.78286856,0.55756068,33.69555,3.56899,TRUE
HF2124,HF2124,167,Kitgum HOSPITAL,KITGUM HOSPITAL,General Hospital,Government,ACHOLI,32.88092,3.29792,TRUE,facilities_master_by_facility_id,1,1,1,1,4,0,full_hub_score_4,TRUE,TRUE,TRUE,TRUE,TRUE,150715,629,5,0.080921,0.41065,Kitgum HOSPITAL,KITGUM HOSPITAL,General Hospital,Government,MOH,Functional,NA,KITGUM,KITGUM MUNICIPALITY,CENTRAL DIVISION,exact_clean_name_match,167,Kitgum HOSPITAL,General Hospital,2,2,1,1,0.03323021,0.74587517,0.80613154,0.77600336,32.88092,3.29792,TRUE
HF2140,HF2140,168,Naam Okora HC IV,NAAM OKORA HC IV,HC IV,Government,ACHOLI,33.33844,3.35185,TRUE,facilities_master_by_facility_id,0,0,0,0,0,1,not_ready_score_0,FALSE,FALSE,FALSE,FALSE,FALSE,28508,0,0,0.073244,0.423721,Naam Okora HC IV,NAAM OKORA HC IV,HC IV,Government,MOH,Functional,NA,KITGUM,CHUA,NAMOKORA,exact_clean_name_match,168,Naam Okora HC IV,HC IV,0,0,0,0,0.03103502,0.64866473,0.83508786,0.74187629,33.33844,3.35185,TRUE
HF2145,HF2145,169,Koboko Hospital,KOBOKO HOSPITAL,General Hospital,Government,WEST NILE,30.95937,3.40942,TRUE,facilities_master_by_facility_id,1,0,0,1,2,0.5,partial_hub_score_2,TRUE,FALSE,FALSE,TRUE,TRUE,251072,711,12,0.04834,0.206661,Koboko Hospital,KOBOKO HOSPITAL,General Hospital,Government,Local Government,Functional,NA,KOBOKO,KOBOKO MUNICIPALITY,SOUTHERN DIVISION,exact_clean_name_match,169,Koboko Hospital,General Hospital,1,0,0,1,0.00998999,0.33331645,0.35423257,0.34377451,30.95937,3.40942,TRUE
HF2152,HF2152,170,Aboke HC IV,ABOKE HC IV,HC IV,Government,LANGO,32.6813,2.3513,TRUE,facilities_master_by_facility_id,1,0,0,0,1,0.75,weak_hub_score_1,FALSE,FALSE,FALSE,TRUE,FALSE,96525,0,0,0.10031,0.435975,Aboke HC IV,ABOKE HC IV,HC IV,Government,MOH,Functional,NA,KOLE,KOLE,ABOKE,exact_clean_name_match,170,Aboke HC IV,HC IV,1,0,0,0,0.04373265,0.99138946,0.86223427,0.92681186,32.6813,2.3513,TRUE
HF2167,HF2167,171,Kotido HC IV,KOTIDO HC IV,HC IV,Government,KARAMOJA,34.11676,3.01504,TRUE,facilities_master_by_facility_id,0,0,0,0,0,1,not_ready_score_0,FALSE,FALSE,FALSE,FALSE,FALSE,128765,0,0,0.056484,0.436503,Kotido HC IV,KOTIDO HC IV,HC IV,Government,MOH,Functional,NA,KOTIDO,KOTIDO MUNICIPALITY,CENTRAL DIVISION,exact_clean_name_match,171,Kotido HC IV,HC IV,0,0,0,0,0.02465544,0.4364403,0.86340396,0.64992213,34.11676,3.01504,TRUE
HF2186,HF2186,172,Madi-Opei HC IV,MADI OPEI HC IV,HC IV,Government,ACHOLI,33.08724,3.60708,TRUE,facilities_master_by_facility_id,0,0,0,0,0,1,not_ready_score_0,FALSE,FALSE,FALSE,FALSE,FALSE,10993,0,0,0.071394,0.393436,Madi-Opei HC IV,MADI OPEI HC IV,HC IV,Government,MOH,Functional,NA,LAMWO,LAMWO,MADI OPEI,exact_clean_name_match,172,Madi-Opei HC IV,HC IV,0,0,0,0,0.02808897,0.62523901,0.76799718,0.6966181,33.08724,3.60708,TRUE
HF2190,HF2190,173,Padibe HC IV,PADIBE HC IV,HC IV,Government,ACHOLI,32.827148,3.475195,TRUE,facilities_master_by_facility_id,1,0,0,0,1,0.75,weak_hub_score_1,FALSE,FALSE,FALSE,TRUE,FALSE,46874,0,0,0.074921,0.391912,Padibe HC IV,PADIBE HC IV,HC IV,Government,MOH,Functional,NA,LAMWO,LAMWO,PADIBE TOWN COUNCIL,exact_clean_name_match,173,Padibe HC IV,HC IV,1,0,0,0,0.02936244,0.66989984,0.76462105,0.71726044,32.827148,3.475195,TRUE
HF2205,HF2205,174,Ayira Health Services,AYIRA HEALTH SERVICES,HC IV,Private For Profit,LANGO,32.89498,2.26901,TRUE,facilities_master_by_facility_id,0,0,0,0,0,1,not_ready_score_0,FALSE,FALSE,FALSE,FALSE,FALSE,156218,0,0,0.100766,0.413943,Ayira Health Services,AYIRA HEALTH SERVICES,HC IV,Private For Profit,NA,Functional,NA,LIRA,LIRA MUNICIPALITY,ADYEL DIVISION,exact_clean_name_match,174,Ayira Health Services,HC IV,0,0,0,0,0.04171138,0.99716359,0.81342655,0.90529507,32.89498,2.26901,TRUE
HF2206,HF2206,175,Lira REGIONAL REF HOSPITAL,LIRA REGIONAL REF HOSPITAL,RR Hospital,Government,LANGO,32.90135,2.25553,TRUE,facilities_master_by_facility_id,0,0,0,1,1,0.75,weak_hub_score_1,FALSE,FALSE,FALSE,TRUE,TRUE,90097,3698,26,0.097593,0.383429,Lira REGIONAL REF HOSPITAL,LIRA REGIONAL REF HOSPITAL,RR Hospital,Government,MOH,Functional,NA,LIRA,LIRA MUNICIPALITY,ADYEL DIVISION,exact_clean_name_match,175,Lira REGIONAL REF HOSPITAL,RR Hospital,0,0,0,1,0.03741999,0.9569853,0.74582857,0.85140693,32.90135,2.25553,TRUE
HF2211,HF2211,176,Amach HC IV,AMACH HC IV,HC IV,Government,LANGO,33.00555,2.11163,TRUE,facilities_master_by_facility_id,1,0,0,0,1,0.75,weak_hub_score_1,FALSE,FALSE,FALSE,TRUE,FALSE,51559,0,0,0.09206,0.329426,Amach HC IV,AMACH HC IV,HC IV,Government,MOH,Functional,NA,LIRA,ERUTE,AMACH,exact_clean_name_match,176,Amach HC IV,HC IV,1,0,0,0,0.03032696,0.88692338,0.62619516,0.75655927,33.00555,2.11163,TRUE
HF2222,HF2222,177,PAG Mission HC IV,PAG MISSION HC IV,HC IV,Private Not For Profit,LANGO,32.89773,2.23864,TRUE,facilities_master_by_facility_id,0,0,0,1,1,0.75,weak_hub_score_1,FALSE,FALSE,FALSE,TRUE,TRUE,274235,1818,3,0.093338,0.39047,PAG Mission HC IV,PAG MISSION HC IV,HC IV,Private Not For Profit,UPMB,Functional,NA,LIRA,LIRA MUNICIPALITY,CENTRAL DIVISION,exact_clean_name_match,177,PAG Mission HC IV,HC IV,0,0,0,1,0.03644569,0.90310612,0.76142657,0.83226635,32.89773,2.23864,TRUE
HF2228,HF2228,178,Ogur HC IV,OGUR HC IV,HC IV,Government,LANGO,32.93588,2.44195,TRUE,facilities_master_by_facility_id,1,0,0,0,1,0.75,weak_hub_score_1,FALSE,FALSE,FALSE,TRUE,FALSE,160407,0,0,0.10099,0.427851,Ogur HC IV,OGUR HC IV,HC IV,Government,MOH,Functional,NA,LIRA,ERUTE,OGUR,exact_clean_name_match,178,Ogur HC IV,HC IV,1,0,0,0,0.04320867,1,0.84423709,0.92211855,32.93588,2.44195,TRUE
HF2249,HF2249,179,Obongi HC IV,OBONGI HC IV,HC IV,Government,WEST NILE,31.49298,3.25326,TRUE,facilities_master_by_facility_id,0,0,0,0,0,1,not_ready_score_0,FALSE,FALSE,FALSE,FALSE,FALSE,63956,0,0,0.050627,0.210048,Obongi HC IV,OBONGI HC IV,HC IV,Government,MOH,Functional,NA,MOYO,OBONGI,GIMARA,exact_clean_name_match,179,Obongi HC IV,HC IV,0,0,0,0,0.0106341,0.36227571,0.36173583,0.36200577,31.49298,3.25326,TRUE
HF2278,HF2278,180,Moyo HOSPITAL,MOYO HOSPITAL,General Hospital,Government,WEST NILE,31.727087,3.659821,TRUE,facilities_master_by_facility_id,1,1,0,1,3,0.25,strong_hub_score_3,TRUE,TRUE,FALSE,TRUE,TRUE,69781,724,9,0.05178,0.203436,Moyo HOSPITAL,MOYO HOSPITAL,General Hospital,Government,MOH,Functional,NA,MOYO,WEST MOYO,MOYO TOWN COUNCIL,exact_clean_name_match,180,Moyo HOSPITAL,General Hospital,1,1,0,1,0.01053392,0.37687564,0.3470882,0.36198192,31.727087,3.659821,TRUE
HF2280,HF2280,181,Tokora HC IV,TOKORA HC IV,HC IV,Government,KARAMOJA,34.66517,1.84395,TRUE,facilities_master_by_facility_id,0,0,0,0,0,1,not_ready_score_0,FALSE,FALSE,FALSE,FALSE,FALSE,29400,0,0,0.040356,0.278769,Tokora HC IV,TOKORA HC IV,HC IV,Government,MOH,Functional,NA,NAKAPIRIPIRIT,CHEKWII,KAKOMONGOLE,exact_clean_name_match,181,Tokora HC IV,HC IV,0,0,0,0,0.01125,0.23221861,0.51397418,0.37309639,34.66517,1.84395,TRUE
HF2292,HF2292,182,Nabilatuk HC IV,NABILATUK HC IV,HC IV,Government,KARAMOJA,34.5743,2.05608,TRUE,facilities_master_by_facility_id,0,0,0,0,0,1,not_ready_score_0,FALSE,FALSE,FALSE,FALSE,FALSE,44804,0,0,0.03847,0.367228,Nabilatuk HC IV,NABILATUK HC IV,HC IV,Government,MOH,Functional,NA,NAKAPIRIPIRIT,PIAN,NABILATUK,exact_clean_name_match,182,Nabilatuk HC IV,HC IV,0,0,0,0,0.01412726,0.20833703,0.70993833,0.45913768,34.5743,2.05608,TRUE
HF2305,HF2305,183,Matany HOSPITAL,MATANY HOSPITAL,General Hospital,Private Not For Profit,KARAMOJA,34.40159,2.37929,TRUE,facilities_master_by_facility_id,0,0,1,1,2,0.5,partial_hub_score_2,TRUE,FALSE,FALSE,TRUE,TRUE,13632,197,5,0.052775,0.428999,Matany HOSPITAL,MATANY HOSPITAL,General Hospital,Private Not For Profit,UCMB,Functional,NA,NAPAK,BOKORA,MATANY,exact_clean_name_match,183,Matany HOSPITAL,General Hospital,0,0,1,1,0.02264042,0.38947488,0.84678027,0.61812758,34.40159,2.37929,TRUE
HF2329,HF2329,184,Nebbi Hospital,NEBBI HOSPITAL,General Hospital,Government,WEST NILE,31.08486,2.48044,TRUE,facilities_master_by_facility_id,0,0,0,1,1,0.75,weak_hub_score_1,FALSE,FALSE,FALSE,TRUE,TRUE,181821,580,7,0.065759,0.327401,Nebbi Hospital,NEBBI HOSPITAL,General Hospital,Government,MOH,Functional,NA,NEBBI,NEBBI MUNICIPALITY,THATHA DIVISION,exact_clean_name_match,184,Nebbi Hospital,General Hospital,0,0,0,1,0.02152956,0.55388551,0.62170916,0.58779733,31.08486,2.48044,TRUE
HF2330,HF2330,185,Angal St. Luke HOSPITAL,ANGAL SAINT LUKE HOSPITAL,General Hospital,Private Not For Profit,WEST NILE,31.193022,2.411255,TRUE,facilities_master_by_facility_id,0,0,0,1,1,0.75,weak_hub_score_1,FALSE,FALSE,FALSE,TRUE,TRUE,114766,1041,2,0.068577,0.362475,Angal St. Luke HOSPITAL,ANGAL SAINT LUKE HOSPITAL,General Hospital,Private Not For Profit,UCMB,Functional,NA,NEBBI,PADYERE,NYARAVUR,exact_clean_name_match,185,Angal St. Luke HOSPITAL,General Hospital,0,0,0,1,0.02485745,0.58956859,0.69940896,0.64448877,31.193022,2.411255,TRUE
HF2353,HF2353,186,Anaka HOSPITAL,ANAKA HOSPITAL,General Hospital,Government,ACHOLI,31.94798,2.60271,TRUE,facilities_master_by_facility_id,1,1,1,1,4,0,full_hub_score_4,TRUE,TRUE,TRUE,TRUE,TRUE,151427,1041,4,0.088435,0.391597,Anaka HOSPITAL,ANAKA HOSPITAL,General Hospital,Government,MOH,Functional,NA,NWOYA,NWOYA,ANAKA TOWN COUNCIL,exact_clean_name_match,186,Anaka HOSPITAL,General Hospital,1,1,1,1,0.03463088,0.84102161,0.76392323,0.80247242,31.94798,2.60271,TRUE
HF2375,HF2375,187,Orum HC IV,ORUM HC IV,HC IV,Government,LANGO,33.34886,2.40098,TRUE,facilities_master_by_facility_id,1,0,0,0,1,0.75,weak_hub_score_1,FALSE,FALSE,FALSE,TRUE,FALSE,50739,0,0,0.095638,0.378121,Orum HC IV,ORUM HC IV,HC IV,Government,MOH,Functional,NA,OTUKE,OTUKE,OTUKE TOWN COUNCIL,exact_clean_name_match,187,Orum HC IV,HC IV,1,0,0,0,0.03616274,0.93223,0.7340697,0.83314985,33.34886,2.40098,TRUE
HF2376,HF2376,188,Aber Ngo HOSPITAL,ABER NGO HOSPITAL,General Hospital,Private Not For Profit,LANGO,32.34108,2.12815,TRUE,facilities_master_by_facility_id,1,0,0,1,2,0.5,partial_hub_score_2,TRUE,FALSE,FALSE,TRUE,TRUE,128850,724,4,0.097373,0.421997,Aber Ngo HOSPITAL,ABER NGO HOSPITAL,General Hospital,Private Not For Profit,UCMB,Non Functional,NA,OYAM,OYAM,ABER,exact_clean_name_match,188,Aber Ngo HOSPITAL,General Hospital,1,0,0,1,0.04109111,0.95419954,0.83126866,0.8927341,32.34108,2.12815,TRUE
HF2400,HF2400,189,Anyeke HC IV,ANYEKE HC IV,HC IV,Government,LANGO,32.50921,2.39086,TRUE,facilities_master_by_facility_id,1,0,0,0,1,0.75,weak_hub_score_1,FALSE,FALSE,FALSE,TRUE,FALSE,190427,0,0,0.09991,0.441162,Anyeke HC IV,ANYEKE HC IV,HC IV,Government,MOH,Functional,NA,OYAM,OYAM,OYAM TOWN COUNCIL,exact_clean_name_match,189,Anyeke HC IV,HC IV,1,0,0,0,0.0440765,0.98632444,0.87372509,0.93002476,32.50921,2.39086,TRUE
HF2410,HF2410,190,5Th Military Division HOSPITAL,5TH MILITARY DIVISION HOSPITAL,General Hospital,Government,ACHOLI,33.00944,2.77578,TRUE,facilities_master_by_facility_id,0,0,0,0,0,1,not_ready_score_0,FALSE,FALSE,FALSE,FALSE,FALSE,58045,0,0,0.097959,0.418186,5Th Military Division HOSPITAL,5TH MILITARY DIVISION HOSPITAL,General Hospital,Government,Army,Functional,NA,PADER,ARUU,PADER,exact_clean_name_match,190,5Th  Military Division HOSPITAL,General Hospital,0,0,0,0,0.04096508,0.96161979,0.82282612,0.89222296,33.00944,2.77578,TRUE
HF2428,HF2428,191,Pajule HC IV,PAJULE HC IV,HC IV,Government,ACHOLI,32.9339,2.97852,TRUE,facilities_master_by_facility_id,1,0,0,0,1,0.75,weak_hub_score_1,FALSE,FALSE,FALSE,TRUE,FALSE,56279,0,0,0.093568,0.422521,Pajule HC IV,PAJULE HC IV,HC IV,Government,MOH,Functional,NA,PADER,ARUU,PAJULE,exact_clean_name_match,191,Pajule HC IV,HC IV,1,0,0,0,0.03953444,0.90601851,0.83242949,0.869224,32.9339,2.97852,TRUE
HF2445,HF2445,192,Yumbe Hospital,YUMBE HOSPITAL,General Hospital,Government,WEST NILE,31.18113,3.43922,TRUE,facilities_master_by_facility_id,0,0,1,0,1,0.75,weak_hub_score_1,FALSE,FALSE,FALSE,FALSE,FALSE,581762,724,2,0.0476,0.215467,Yumbe Hospital,YUMBE HOSPITAL,General Hospital,Government,MOH,Functional,NA,YUMBE,ARINGA,KURU,exact_clean_name_match,192,Yumbe Hospital,General Hospital,0,0,1,0,0.01025623,0.32394616,0.3737406,0.34884338,31.18113,3.43922,TRUE
HF2448,HF2448,193,Midigo HC IV,MIDIGO HC IV,HC IV,Government,WEST NILE,31.2269,3.61036,TRUE,facilities_master_by_facility_id,0,0,0,0,0,1,not_ready_score_0,FALSE,FALSE,FALSE,FALSE,FALSE,179360,0,0,0.046698,0.224596,Midigo HC IV,MIDIGO HC IV,HC IV,Government,MOH,Functional,NA,YUMBE,ARINGA,MIDIGO,exact_clean_name_match,193,Midigo HC IV,HC IV,0,0,0,0,0.01048818,0.31252453,0.39396417,0.35324435,31.2269,3.61036,TRUE
HF2457,HF2457,194,Nyapea HOSPITAL,NYAPEA HOSPITAL,General Hospital,Private Not For Profit,WEST NILE,30.949542,2.463655,TRUE,facilities_master_by_facility_id,1,1,1,1,4,0,full_hub_score_4,TRUE,TRUE,TRUE,TRUE,TRUE,95962,272,12,0.062158,0.351558,Nyapea HOSPITAL,NYAPEA HOSPITAL,General Hospital,Private Not For Profit,UCMB,Functional,NA,ZOMBO,OKORO,NYAPEA,exact_clean_name_match,194,Nyapea HOSPITAL,General Hospital,1,1,1,1,0.02185214,0.50828764,0.67522441,0.59175603,30.949542,2.463655,TRUE
HF2475,HF2475,195,Nsiika HC IV,NSIIKA HC IV,HC IV,Government,ANKOLE,30.437887,-0.362992,TRUE,facilities_master_by_facility_id,0,0,0,0,0,1,not_ready_score_0,FALSE,FALSE,FALSE,FALSE,FALSE,47326,0,0,0.022053,0.088444,Nsiika HC IV,NSIIKA HC IV,HC IV,Government,MOH,Functional,NA,BUHWEJU,BUHWEJU,NSIIKA TOWN COUNCIL,exact_clean_name_match,195,Nsiika HC IV,HC IV,0,0,0,0,0.00195046,4.5585e-4,0.09234522,0.04640053,30.437887,-0.362992,TRUE
HF2481,HF2481,196,Buliisa Hospital,BULIISA HOSPITAL,General Hospital,Government,BUNYORO,31.41245,2.11622,TRUE,facilities_master_by_facility_id,1,1,1,1,4,0,full_hub_score_4,TRUE,TRUE,TRUE,TRUE,TRUE,120553,206,10,0.080853,0.336616,Buliisa Hospital,BULIISA HOSPITAL,General Hospital,Government,MOH,Functional,NA,BULIISA,BULIISA,BULIISA TOWN COUNCIL,exact_clean_name_match,196,Buliisa Hospital,General Hospital,1,1,1,1,0.02721641,0.74501412,0.64212324,0.69356868,31.41245,2.11622,TRUE
HF2490,HF2490,197,Bundibugyo Hospital,BUNDIBUGYO HOSPITAL,General Hospital,Government,TORO,30.06354,0.70216,TRUE,facilities_master_by_facility_id,0,0,0,1,1,0.75,weak_hub_score_1,FALSE,FALSE,FALSE,TRUE,TRUE,100365,1315,8,0.052151,0.16528,Bundibugyo Hospital,BUNDIBUGYO HOSPITAL,General Hospital,Government,MOH,Functional,NA,BUNDIBUGYO,BWAMBA,BUNDIBUGYO TOWN COUNCIL,exact_clean_name_match,197,Bundibugyo Hospital,General Hospital,0,0,0,1,0.00861952,0.38157345,0.26256081,0.32206713,30.06354,0.70216,TRUE
HF2494,HF2494,198,Busaru HC IV,BUSARU HC IV,HC IV,Private Not For Profit,TORO,30.04422,0.66763,TRUE,facilities_master_by_facility_id,1,1,0,0,2,0.5,partial_hub_score_2,TRUE,FALSE,FALSE,TRUE,FALSE,119966,0,0,0.053528,0.153529,Busaru HC IV,BUSARU HC IV,HC IV,Private Not For Profit,UCMB,Functional,NA,BUNDIBUGYO,BWAMBA,BUSARU,exact_clean_name_match,198,Busaru HC IV,HC IV,1,1,0,0,0.0082181,0.39900979,0.2365287,0.31776924,30.04422,0.66763,TRUE
HF2501,HF2501,199,Kikyo HC IV,KIKYO HC IV,HC IV,Government,TORO,30.12337,0.74551,TRUE,facilities_master_by_facility_id,0,0,0,0,0,1,not_ready_score_0,FALSE,FALSE,FALSE,FALSE,FALSE,36800,0,0,0.051173,0.167921,Kikyo HC IV,KIKYO HC IV,HC IV,Government,MOH,Functional,NA,BUNDIBUGYO,BUGHENDERA,NGAMBA,exact_clean_name_match,199,Kikyo HC IV,HC IV,0,0,0,0,0.00859302,0.36918947,0.26841145,0.31880046,30.12337,0.74551,TRUE
HF2508,HF2508,200,Bushenyi HC IV,BUSHENYI HC IV,HC IV,Government,ANKOLE,30.19661,-0.54188,TRUE,facilities_master_by_facility_id,0,0,0,0,0,1,not_ready_score_0,FALSE,FALSE,FALSE,FALSE,FALSE,50128,0,0,0.023927,0.109359,Bushenyi HC IV,BUSHENYI HC IV,HC IV,Government,MOH,Functional,NA,BUSHENYI,BUSHENYI-ISHAKA MUNICIPALITY,CENTRAL DIVISON,exact_clean_name_match,200,Bushenyi HC IV,HC IV,0,0,0,0,0.00261663,0.02418548,0.13867843,0.08143196,30.19661,-0.54188,TRUE
HF2512,HF2512,201,Kiu Teaching HOSPITAL,KIU TEACHING HOSPITAL,General Hospital,Private Not For Profit,ANKOLE,30.14554,-0.53999,TRUE,facilities_master_by_facility_id,0,0,0,1,1,0.75,weak_hub_score_1,FALSE,FALSE,FALSE,TRUE,TRUE,67364,43,3,0.024545,0.112981,Kiu Teaching HOSPITAL,KIU TEACHING HOSPITAL,General Hospital,Private Not For Profit,CSO,Functional,NA,BUSHENYI,BUSHENYI-ISHAKA MUNICIPALITY,ISHAKA DIVISON,exact_clean_name_match,201,Kiu Teaching HOSPITAL,General Hospital,0,0,0,1,0.00277312,0.03201094,0.14670229,0.08935662,30.14554,-0.53999,TRUE
HF2513,HF2513,202,Ishaka Adventist HOSPITAL,ISHAKA ADVENTIST HOSPITAL,General Hospital,Private Not For Profit,ANKOLE,30.13799,-0.54429,TRUE,facilities_master_by_facility_id,0,0,0,1,1,0.75,weak_hub_score_1,FALSE,FALSE,FALSE,TRUE,TRUE,31340,16,1,0.023536,0.113948,Ishaka Adventist HOSPITAL,ISHAKA ADVENTIST HOSPITAL,General Hospital,Private Not For Profit,NA,Functional,NA,BUSHENYI,BUSHENYI-ISHAKA MUNICIPALITY,ISHAKA DIVISON,exact_clean_name_match,202,Ishaka Adventist HOSPITAL,General Hospital,0,0,0,1,0.00268188,0.01923442,0.14884449,0.08403945,30.13799,-0.54429,TRUE
HF2521,HF2521,203,Kyabugimbi HC IV,KYABUGIMBI HC IV,HC IV,Government,ANKOLE,30.26623,-0.49638,TRUE,facilities_master_by_facility_id,0,0,0,0,0,1,not_ready_score_0,FALSE,FALSE,FALSE,FALSE,FALSE,51812,0,0,0.023428,0.107261,Kyabugimbi HC IV,KYABUGIMBI HC IV,HC IV,Government,MOH,Functional,NA,BUSHENYI,IGARA,KYABUGIMBI,exact_clean_name_match,203,Kyabugimbi HC IV,HC IV,0,0,0,0,0.00251291,0.01786687,0.13403071,0.07594879,30.26623,-0.49638,TRUE
HF2522,HF2522,204,Comboni HOSPITAL,COMBONI HOSPITAL,General Hospital,Private Not For Profit,ANKOLE,30.11953,-0.44297,TRUE,facilities_master_by_facility_id,0,0,0,1,1,0.75,weak_hub_score_1,FALSE,FALSE,FALSE,TRUE,TRUE,51408,100,4,0.024698,0.11129,Comboni HOSPITAL,COMBONI HOSPITAL,General Hospital,Private Not For Profit,UCMB,Functional,NA,BUSHENYI,IGARA,KYAMUHUNGA TOWN COUNCIL,exact_clean_name_match,204,Comboni HOSPITAL,General Hospital,0,0,0,1,0.00274864,0.03394831,0.1429562,0.08845226,30.11953,-0.44297,TRUE
HF2528,HF2528,205,Hunter Foundation HC,HUNTER FOUNDATION HC,General Hospital,Private For Profit,ANKOLE,30.28716,-0.55523,TRUE,facilities_master_by_facility_id,0,0,0,0,0,1,not_ready_score_0,FALSE,FALSE,FALSE,FALSE,FALSE,30088,0,0,0.023475,0.104394,Hunter Foundation HC,HUNTER FOUNDATION HC,General Hospital,Private For Profit,CSO,Non Functional,NA,BUSHENYI,IGARA,KYEIZOOBA,exact_clean_name_match,205,Hunter Foundation HC,General Hospital,0,0,0,0,0.00245065,0.01846201,0.12767942,0.07307071,30.28716,-0.55523,TRUE
HF2565,HF2565,206,Azur HC III,AZUR HC III,HC IV,Private Not For Profit,BUNYORO,31.34196,1.43875,TRUE,facilities_master_by_facility_id,0,0,0,0,0,1,not_ready_score_0,FALSE,FALSE,FALSE,FALSE,FALSE,206859,0,0,0.066761,0.215013,Azur HC III,AZUR HC III,HC IV,Private Not For Profit,UPMB,Functional,NA,HOIMA,HOIMA MUNICIPALITY,KAHOORA DIVISON,exact_clean_name_match,206,Azur HC III,HC IV,0,0,0,0,0.01435448,0.56657339,0.37273485,0.46965412,31.34196,1.43875,TRUE
HF2566,HF2566,207,Hoima REGIONAL REF HOSPITAL,HOIMA REGIONAL REF HOSPITAL,RR Hospital,Government,BUNYORO,31.354685,1.430788,TRUE,facilities_master_by_facility_id,0,0,0,1,1,0.75,weak_hub_score_1,FALSE,FALSE,FALSE,TRUE,TRUE,125437,1777,53,0.064527,0.193929,Hoima REGIONAL REF HOSPITAL,HOIMA REGIONAL REF HOSPITAL,RR Hospital,Government,MOH,Functional,NA,HOIMA,HOIMA MUNICIPALITY,KAHOORA DIVISON,exact_clean_name_match,207,Hoima REGIONAL REF HOSPITAL,RR Hospital,0,0,0,1,0.01251366,0.53828524,0.32602724,0.43215624,31.354685,1.430788,TRUE
HF2570,HF2570,208,Kigorobya HC IV,KIGOROBYA HC IV,HC IV,Government,BUNYORO,31.30888,1.61492,TRUE,facilities_master_by_facility_id,0,0,0,0,0,1,not_ready_score_0,FALSE,FALSE,FALSE,FALSE,FALSE,163324,0,0,0.071868,0.263757,Kigorobya HC IV,KIGOROBYA HC IV,HC IV,Government,MOH,Functional,NA,HOIMA,BUGAHYA,KIGOROBYA TOWN COUNCIL,exact_clean_name_match,208,Kigorobya HC IV,HC IV,0,0,0,0,0.01895569,0.63124106,0.48071794,0.5559795,31.30888,1.61492,TRUE
HF2578,HF2578,209,Kikuube HC IV,KIKUUBE HC IV,HC IV,Government,BUNYORO,31.22218,1.34046,TRUE,facilities_master_by_facility_id,0,0,0,0,0,1,not_ready_score_0,FALSE,FALSE,FALSE,FALSE,FALSE,166217,0,0,0.061672,0.224702,Kikuube HC IV,KIKUUBE HC IV,HC IV,Government,MOH,Functional,NA,HOIMA,BUHAGUZI,KIZIRANFUMBI,exact_clean_name_match,209,Kikuube HC IV,HC IV,0,0,0,0,0.01385782,0.50213364,0.39419899,0.44816632,31.22218,1.34046,TRUE
HF2586,HF2586,210,Kyangwali HC IV,KYANGWALI HC IV,HC IV,Government,BUNYORO,30.80046,1.2123,TRUE,facilities_master_by_facility_id,0,0,0,0,0,1,not_ready_score_0,FALSE,FALSE,FALSE,FALSE,FALSE,134630,0,0,0.059484,0.220146,Kyangwali HC IV,KYANGWALI HC IV,HC IV,Government,MOH,Functional,NA,HOIMA,BUHAGUZI,KYANGWALI,exact_clean_name_match,210,Kyangwali HC IV,HC IV,0,0,0,0,0.01309516,0.47442797,0.38410603,0.429267,30.80046,1.2123,TRUE
